id,kode_provinsi,nama_provinsi,bps_kode_kabupaten_kota,bps_nama_kabupaten_kota,category_official,location_name,address,coordinate,tahun,latitude,longitude
1,32,JAWA BARAT,3273,KOTA BANDUNG,MALL/SUPERMALL/PLAZA,CIWALK,JL. CIHAMPELAS NO. 160,"-6.892040010593098, 107.60505450446244",2021,-6.892040010593098,107.60505450446244
2,32,JAWA BARAT,3273,KOTA BANDUNG,MALL/SUPERMALL/PLAZA,PARIS VAN JAVA RESORT LIFESTYLE PLACE,JL. SUKAJADI NO. 131-139,"-6.887284479328349, 107.59614923028673",2021,-6.887284479328349,107.59614923028673
3,32,JAWA BARAT,3273,KOTA BANDUNG,MALL/SUPERMALL/PLAZA,BTC FASHION MALL,JL. DR. DJUNJUNAN NO. 143-149,"-6.891267778753975, 107.58534565200128",2021,-6.891267778753975,107.58534565200128
4,32,JAWA BARAT,3273,KOTA BANDUNG,MALL/SUPERMALL/PLAZA,ISTANA PLAZA,JL. PASIR KALIKI NO. 121-123,"-6.903687066118921, 107.59703469863425",2021,-6.903687066118921,107.59703469863425
5,32,JAWA BARAT,3273,KOTA BANDUNG,MALL/SUPERMALL/PLAZA,ISTANA BEC,JL. PURNAWARMAN NO. 13-15,"-6.9064136285250814, 107.60853574494158",2021,-6.9064136285250814,107.60853574494158
6,32,JAWA BARAT,3273,KOTA BANDUNG,MALL/SUPERMALL/PLAZA,MALL PASKAL 23 HYPERSQUARE BANDUNG,KEBON JERUK ANDIR,"-6.913288882344184, 107.59438468720333",2021,-6.913288882344184,107.59438468720333
7,32,JAWA BARAT,3273,KOTA BANDUNG,MALL/SUPERMALL/PLAZA,GRAND YOGYA KEPATIHAN,JL. KEPATIHAN NO. 18,"-6.92199155090802, 107.60593431871882",2021,-6.92199155090802,107.60593431871882
8,32,JAWA BARAT,3273,KOTA BANDUNG,MALL/SUPERMALL/PLAZA,BRAGA CITY WALK,JL. BRAGA NO. 99-101,"-6.9152060212036295, 107.60935141882891",2021,-6.9152060212036295,107.60935141882891
9,32,JAWA BARAT,3273,KOTA BANDUNG,MALL/SUPERMALL/PLAZA,BANDUNG INDAH PLAZA,JL. MERDEKA NO. 56,"-6.906461662542402, 107.6106710441752",2021,-6.906461662542402,107.6106710441752
10,32,JAWA BARAT,3273,KOTA BANDUNG,MALL/SUPERMALL/PLAZA,TRANS STUDIO MALL,JL. GATOT SUBROTO NO. 289,"-6.923332484599419, 107.6365056658089",2021,-6.923332484599419,107.6365056658089
11,32,JAWA BARAT,3273,KOTA BANDUNG,MALL/SUPERMALL/PLAZA,FESTIVAL CITYLINK,JL. PETA NO. 241,"-6.927961605244426, 107.58619009151079",2021,-6.927961605244426,107.58619009151079
12,32,JAWA BARAT,3273,KOTA BANDUNG,MALL/SUPERMALL/PLAZA,TERAS CIHAMPELAS BANDUNG,JL. CIHAMPELAS NO. 162,"-6.893683587976739, 107.60420310492128",2021,-6.893683587976739,107.60420310492128
13,32,JAWA BARAT,3273,KOTA BANDUNG,MALL/SUPERMALL/PLAZA,LIVING PLAZA DAGO,JL. IR. H. JUANDA TAMANSARI,"-6.899783700383481, 107.6115831402815",2021,-6.899783700383481,107.6115831402815
14,32,JAWA BARAT,3273,KOTA BANDUNG,MALL/SUPERMALL/PLAZA,CLICK SQUARE,JL. NARIPAN NO. 89,"-6.919687260878797, 107.61601294382884",2021,-6.919687260878797,107.61601294382884
15,32,JAWA BARAT,3273,KOTA BANDUNG,MALL/SUPERMALL/PLAZA,PLAZA SETRASARI,JL. SURYA SUMANTRI NO. 444,"-6.880458460110545, 107.58230127299392",2021,-6.880458460110545,107.58230127299392
16,32,JAWA BARAT,3273,KOTA BANDUNG,MALL/SUPERMALL/PLAZA,BALUBUR TOWN SQUARE,JL. TAMANSARI NO. P-2,"-6.897856405196513, 107.60931363841841",2021,-6.897856405196513,107.60931363841841
17,32,JAWA BARAT,3273,KOTA BANDUNG,MALL/SUPERMALL/PLAZA,MIKO MALL KOPO,JL. RAYA KOPO NO. 599,"-6.959857000032356, 107.5808088664058",2021,-6.959857000032356,107.5808088664058
18,32,JAWA BARAT,3273,KOTA BANDUNG,MALL/SUPERMALL/PLAZA,RIAU JUNCTION,JL. L. L. R. E. MARTADINATA,"-6.906275618025114, 107.6122259662744",2021,-6.906275618025114,107.6122259662744
19,32,JAWA BARAT,3273,KOTA BANDUNG,MALL/SUPERMALL/PLAZA,PASAR BARU TRADE CENTER,JL. OTTO ISKANDAR DINATA NO. 70,"-6.917337776713038, 107.60429321080534",2021,-6.917337776713038,107.60429321080534
20,32,JAWA BARAT,3273,KOTA BANDUNG,MALL/SUPERMALL/PLAZA,BTM BANDUNG TRADE MALL,JL IBRAHIM ADJIE NO. 47,"-6.911264675617622, 107.64430607988103",2021,-6.911264675617622,107.64430607988103
21,32,JAWA BARAT,3273,KOTA BANDUNG,MALL/SUPERMALL/PLAZA,PARAHYANGAN PLAZA,JL. DALEM KAUM NO. 54,"-6.9214530590347865, 107.60623949107057",2021,-6.9214530590347865,107.60623949107057
22,32,JAWA BARAT,3273,KOTA BANDUNG,MALL/SUPERMALL/PLAZA,THE KINGS SHOPPING CENTRE,JL. KEPATIHAN NO. 11-17,"-6.922012047145163, 107.60515513613716",2021,-6.922012047145163,107.60515513613716
23,32,JAWA BARAT,3273,KOTA BANDUNG,MALL/SUPERMALL/PLAZA,LUCKY SQUARE MALL,JL. TERUSAN JAKARTA NO. 2,"-6.912789341821708, 107.64485622644148",2021,-6.912789341821708,107.64485622644148
24,32,JAWA BARAT,3273,KOTA BANDUNG,MALL/SUPERMALL/PLAZA,PISET SQUARE,JL. PELAJAR PEJUANG 45 NO. 119,"-6.933279379222399, 107.6258017895552",2021,-6.933279379222399,107.6258017895552
25,32,JAWA BARAT,3273,KOTA BANDUNG,MALL/SUPERMALL/PLAZA,MD PLAZA,JL. OTTO ISKANDAR DINATA,"-6.9165559564583825, 107.60401937657836",2021,-6.9165559564583825,107.60401937657836
26,32,JAWA BARAT,3273,KOTA BANDUNG,MALL/SUPERMALL/PLAZA,YOGYA JUNCTION,JL. SUMATERA,"-6.906621122123139, 107.6120481953328",2021,-6.906621122123139,107.6120481953328
27,32,JAWA BARAT,3273,KOTA BANDUNG,MALL/SUPERMALL/PLAZA,UJUNG BERUNG TOWN SQUARE,JL. A. H. NASUTION NO. 46A,"-6.914178822557875, 107.69661601066169",2021,-6.914178822557875,107.69661601066169
28,32,JAWA BARAT,3273,KOTA BANDUNG,MALL/SUPERMALL/PLAZA,METRO TRADE CENTER,SEKEJATI BUAH BATU,"-6.9430663913270205, 107.65887223541534",2021,-6.9430663913270205,107.65887223541534
29,32,JAWA BARAT,3273,KOTA BANDUNG,MALL/SUPERMALL/PLAZA,METRO INDAH MALL,JL. SOEKARNO HATTA JL. MTC BARAT NO. 590,"-6.9430663913270205, 107.65887223541534",2021,-6.9430663913270205,107.65887223541534
30,32,JAWA BARAT,3273,KOTA BANDUNG,MALL/SUPERMALL/PLAZA,JAYA PLAZA,JL. JEND. AHMAD YANI NO. 238,"-6.917657329259269, 107.62659842430483",2021,-6.917657329259269,107.62659842430483
31,32,JAWA BARAT,3273,KOTA BANDUNG,MALL/SUPERMALL/PLAZA,THE PLAZA IBCC,JL. JEND AHMAD YANI NO. 296,"-6.915313975997785, 107.63342472235415",2021,-6.915313975997785,107.63342472235415
32,32,JAWA BARAT,3273,KOTA BANDUNG,MALL/SUPERMALL/PLAZA,ITC KEBON KELAPA,JL. MOH. TOHA JL. PUNGKUR,"-6.915313975997785, 107.63342472235415",2021,-6.915313975997785,107.63342472235415
33,32,JAWA BARAT,3273,KOTA BANDUNG,MALL/SUPERMALL/PLAZA,RAJAWALI PLAZA,JL. RAJAWALI TIMUR NO. 27,"-6.915876683103376, 107.58891379324648",2021,-6.915876683103376,107.58891379324648
34,32,JAWA BARAT,3273,KOTA BANDUNG,MALL/SUPERMALL/PLAZA,BUAH BATU SQUARE,JL. RAYA BOJONGSOANG NO. 321,"-6.966452513855623, 107.63804152790945",2021,-6.966452513855623,107.63804152790945
35,32,JAWA BARAT,3273,KOTA BANDUNG,MALL/SUPERMALL/PLAZA,RAMAYANA,JL. ASTANA ANYAR NO. 186,"-6.9268812631104195, 107.5998676354403",2021,-6.9268812631104195,107.5998676354403
36,32,JAWA BARAT,3273,KOTA BANDUNG,MALL/SUPERMALL/PLAZA,YOGYA SUNDA,JL. SUNDA NO. 60,"-6.9178196094115565, 107.61826415056704",2021,-6.9178196094115565,107.61826415056704
37,32,JAWA BARAT,3273,KOTA BANDUNG,OUTLET,RUMAH MODE FACTORY OUTLET,JL. DR. SETIABUDI NO. 41,"-6.8762333285569905, 107.6010442257491",2021,-6.8762333285569905,107.6010442257491
38,32,JAWA BARAT,3273,KOTA BANDUNG,OUTLET,BLOSSOM,JL. IR. H. JUANDA NO. 112,"-6.889413936012234, 107.61358346500812",2021,-6.889413936012234,107.61358346500812
39,32,JAWA BARAT,3273,KOTA BANDUNG,OUTLET,MERDEKA ARCADE FACTORY OUTLET,JL. MERDEKA NO. 35,"-6.90627142405612, 107.61051262087368",2021,-6.90627142405612,107.61051262087368
40,32,JAWA BARAT,3273,KOTA BANDUNG,OUTLET,MORNING DEW FACTORY OUTLET,JL. IR. H. JUANDA NO. 81,"-6.893907569742586, 107.611940791486",2021,-6.893907569742586,107.611940791486
41,32,JAWA BARAT,3273,KOTA BANDUNG,OUTLET,PABERIK BADJOE FACTORY OUTLET,JL. SOEKARNO HATTA NO. 573,"-6.941533483597855, 107.63848041889925",2021,-6.941533483597855,107.63848041889925
42,32,JAWA BARAT,3273,KOTA BANDUNG,OUTLET,BANDARBAJU.COM PUSAT BISNIS BAJU MURAH BANDUNG,JL. ANGKASA MEKAR NO. 88,"-6.957374186500854, 107.59012380428753",2021,-6.957374186500854,107.59012380428753
43,32,JAWA BARAT,3273,KOTA BANDUNG,OUTLET,FACTORY OUTLET STORE,JL. DR. SETIABUDI 73,"-6.87053744092307, 107.5940868594795",2021,-6.87053744092307,107.5940868594795
44,32,JAWA BARAT,3273,KOTA BANDUNG,OUTLET,THE SECRET FACTORY OUTLET,JL. L. L. R. E. MARTADINATAÂ  NO. 47,"-6.904341501026932, 107.61460880065003",2021,-6.904341501026932,107.61460880065003
45,32,JAWA BARAT,3273,KOTA BANDUNG,OUTLET,CARGO FACTORY OUTLET,JL. DIPONEGORO NO. 30,"-6.899910912083527, 107.6220760149725",2021,-6.899910912083527,107.6220760149725
46,32,JAWA BARAT,3273,KOTA BANDUNG,OUTLET,ANAKECIL FACTORY OUTLET,JL. HAYAM WURUK NO. 32,"-6.902041250680221, 107.62035941582116",2021,-6.902041250680221,107.62035941582116
47,32,JAWA BARAT,3273,KOTA BANDUNG,OUTLET,HERITAGE THE FACTORY OUTLET,JL. L. L. R. E. MARTADINATA NO. 63-65,"-6.904086411492033, 107.61718370032496",2021,-6.904086411492033,107.61718370032496
48,32,JAWA BARAT,3273,KOTA BANDUNG,OUTLET,PASSION FACTORY OUTLET,JL. L. L. R. E. MARTADINATA NO. 36,"-6.905668433280177, 107.61664414888115",2021,-6.905668433280177,107.61664414888115
49,32,JAWA BARAT,3273,KOTA BANDUNG,OUTLET,EST FACTORY OUTLET,JL. SUMATERA NO. 28-30,"-6.916087641641674, 107.61391375120033",2021,-6.916087641641674,107.61391375120033
50,32,JAWA BARAT,3273,KOTA BANDUNG,OUTLET,DSE FACTORY OUTLET,JL. MERDEKA NO. 35,"-6.907861945781902, 107.61016158072113",2021,-6.907861945781902,107.61016158072113
51,32,JAWA BARAT,3273,KOTA BANDUNG,OUTLET,ADIDAS OUTLET STORE,JL. SOEKARNO HATTA NO. 57355,"-6.945820849775246, 107.63874392149509",2021,-6.945820849775246,107.63874392149509
52,32,JAWA BARAT,3273,KOTA BANDUNG,OUTLET,THE CROWN PREMIUM OUTLETS,JL. L. L. R. E. MARTADINATA NO. 51,"-6.90639141247417, 107.61504971910931",2021,-6.90639141247417,107.61504971910931
53,32,JAWA BARAT,3273,KOTA BANDUNG,OUTLET,ADIDAS OUTLET DAGO,JL. IR H. JUANDA NO. 123,"-6.890279955952941, 107.61339052843395",2021,-6.890279955952941,107.61339052843395
54,32,JAWA BARAT,3273,KOTA BANDUNG,OUTLET,EIGER,JL. PELAJAR PEJUANG 45 NO. 112,"-6.93251141208714, 107.62307514112626",2021,-6.93251141208714,107.62307514112626
55,32,JAWA BARAT,3273,KOTA BANDUNG,OUTLET,EIGER ADVENTURE CIHAMPELAS,JL. CIHAMPELAS NO. 22,"-6.90398199964887, 107.60461201101283",2021,-6.90398199964887,107.60461201101283
56,32,JAWA BARAT,3273,KOTA BANDUNG,OUTLET,PEGASHOES,JL. KEMBANG SAPATU NO. 3,"-6.917630849245296, 107.6245878965211",2021,-6.917630849245296,107.6245878965211
57,32,JAWA BARAT,3273,KOTA BANDUNG,OUTLET,FO RIAU STOK MALL,JL. L. L. R. E. MARTADINATA NO. 160,"-6.912518306702773, 107.6291368858317",2021,-6.912518306702773,107.6291368858317
58,32,JAWA BARAT,3273,KOTA BANDUNG,OUTLET,EXPORT STATION,JL. SUMATERA NO. 24-30,"-6.914566983084818, 107.61395944297708",2021,-6.914566983084818,107.61395944297708
59,32,JAWA BARAT,3273,KOTA BANDUNG,OUTLET,FS BODYPACK EIGER STORE DAGO,JL. IR. H. JUANDA NO. 88,"-6.89471339141491, 107.61327236979163",2021,-6.89471339141491,107.61327236979163
60,32,JAWA BARAT,3273,KOTA BANDUNG,OUTLET,CONSINA STORE BANDUNG,JL. LENGKONG BESAR NO. 79,"-6.925321832006346, 107.6123781586149",2021,-6.925321832006346,107.6123781586149
61,32,JAWA BARAT,3273,KOTA BANDUNG,OUTLET,ISTANA SEPATU,JL. DALEM KAUM NO. 25,"-6.921761034164259, 107.60481619141463",2021,-6.921761034164259,107.60481619141463
62,32,JAWA BARAT,3273,KOTA BANDUNG,OUTLET,ISTANA SEPATU MERDEKA,JL. MERDEKA NO. 23A,"-6.909031604124932, 107.61044795512679",2021,-6.909031604124932,107.61044795512679
63,32,JAWA BARAT,3273,KOTA BANDUNG,OUTLET,EIGER SUMATERA,JL. SUMATERA NO. 23,"-6.915838350397886, 107.61338908638176",2021,-6.915838350397886,107.61338908638176
64,32,JAWA BARAT,3273,KOTA BANDUNG,OUTLET,THE SAPARUA,JL. AMBON NO. 15,"-6.907073430112584, 107.61679002283243",2021,-6.907073430112584,107.61679002283243
65,32,JAWA BARAT,3273,KOTA BANDUNG,OUTLET,CASCADE FASHION HOUSE AND HOME LIVING,JL. L. L. R. E. MARTADINATA NO. 65,"-6.905507734477263, 107.61738010469917",2021,-6.905507734477263,107.61738010469917
66,32,JAWA BARAT,3273,KOTA BANDUNG,OUTLET,UNDER ARMOUR BANDUNG,JL. IR. H. JUANDA NO. 23,"-6.904552125190411, 107.61046809552263",2021,-6.904552125190411,107.61046809552263
67,32,JAWA BARAT,3273,KOTA BANDUNG,OUTLET,TERMINAL TAS,JL. L. L. R. E. MARTADINATA NO. 32,"-6.905681029509282, 107.61631843989505",2021,-6.905681029509282,107.61631843989505
68,32,JAWA BARAT,3273,KOTA BANDUNG,OUTLET,IBC JEANS & FACTORY OUTLET,JL. CIHAMPELAS NO. 114,"-6.897148511325782, 107.604214512886",2021,-6.897148511325782,107.604214512886
69,32,JAWA BARAT,3273,KOTA BANDUNG,OUTLET,DEARUMMANIS FACTORY OUTLET,JL. CIHAMPELAS NO. 144,"-6.895486917998204, 107.60421449881454",2021,-6.895486917998204,107.60421449881454
70,32,JAWA BARAT,3273,KOTA BANDUNG,OUTLET,NIKE FACTORY STORE,JL. IR. H. JUANDA NO. 145,"-6.888811226155463, 107.61281953085681",2021,-6.888811226155463,107.61281953085681
71,32,JAWA BARAT,3273,KOTA BANDUNG,OUTLET,EPISODE,JL. IR. H. JUANDA NO. 125,"-6.89142587388843, 107.61278572240374",2021,-6.89142587388843,107.61278572240374
72,32,JAWA BARAT,3273,KOTA BANDUNG,OUTLET,MACADAMIA LITTLE GLAMZ,JL. BAHUREKSA NO.12,"-6.905373266499163, 107.61446943114248",2021,-6.905373266499163,107.61446943114248
73,32,JAWA BARAT,3273,KOTA BANDUNG,OUTLET,RABBANI KEMKO BUAH BATU,JL. BUAH BATU NO. 150,"-6.937375940087906, 107.62300645122797",2021,-6.937375940087906,107.62300645122797
74,32,JAWA BARAT,3273,KOTA BANDUNG,OUTLET,GANI FACTORY OUTLET,JL. A.H. NASUTION KM 10 NO. 6-8,"-6.912032535092137, 107.69169095631952",2021,-6.912032535092137,107.69169095631952
75,32,JAWA BARAT,3273,KOTA BANDUNG,OUTLET,HOUSE OF DONATELLO,JL. IR. H. JUANDA NO. 104,"-6.89234104056075, 107.61346546433096",2021,-6.89234104056075,107.61346546433096
76,32,JAWA BARAT,3273,KOTA BANDUNG,OUTLET,FACTORY OUTLET TOMKINS,JL. GEDEBAGE SELATAN NO. 95,"-6.946721209427769, 107.68908069175131",2021,-6.946721209427769,107.68908069175131
77,32,JAWA BARAT,3273,KOTA BANDUNG,OUTLET,HYPESTORE,JL. CIHAMPELAS NO. 178,"-6.890222261711635, 107.60362729289436",2021,-6.890222261711635,107.60362729289436
78,32,JAWA BARAT,3273,KOTA BANDUNG,OUTLET,C29 FACTORY OUTLET,JL. CIGONDEWAH KIDUL NO. 29,"-6.929223077212588, 107.56495117580819",2021,-6.929223077212588,107.56495117580819
79,32,JAWA BARAT,3273,KOTA BANDUNG,OUTLET,PUMA OUTLET,JL. IR. H. JUANDA NO. 119,"-6.891180218316193, 107.61247443290858",2021,-6.891180218316193,107.61247443290858
80,32,JAWA BARAT,3273,KOTA BANDUNG,OUTLET,FACTORY OUTLET JBA,JL. TERUSAN KIPO KM. 13 NO. 367,"-7.008748283355581, 107.55110083463344",2021,-7.008748283355581,107.55110083463344
81,32,JAWA BARAT,3273,KOTA BANDUNG,OUTLET,DEMOSS WISATA BERBELANJA BUAH BATU,JL. BUAH BATU NO. 149,"-6.9376468884924725, 107.62430449537621",2021,-6.9376468884924725,107.62430449537621
82,32,JAWA BARAT,3273,KOTA BANDUNG,OUTLET,PERAHU JEANS FASHION OUTLET,JL. CIHAMPELAS,"-6.895485724104602, 107.6039751223515",2021,-6.895485724104602,107.6039751223515
83,32,JAWA BARAT,3273,KOTA BANDUNG,OUTLET,MINIMAL RUMAH MODE,JL. DR. SETIABUDI NO. 41,"-6.882740667366009, 107.59984082444936",2021,-6.882740667366009,107.59984082444936
84,32,JAWA BARAT,3273,KOTA BANDUNG,OUTLET,GRANDE FACTORY OUTLET,JL. RAYA PAJAJARAN NO. 76,"-6.6088744055930615, 106.81121596286543",2021,-6.6088744055930615,106.81121596286543
87,32,JAWA BARAT,3273,KOTA BANDUNG,OUTLET,LEVEL,JL. H. JUANDA NO. 138,"-6.888460102346018, 107.61374930585654",2021,-6.888460102346018,107.61374930585654
88,32,JAWA BARAT,3273,KOTA BANDUNG,OUTLET,RENARITTI,JL. L. L. R. E. MARTADINATA NO. 26,"-6.90648632941917, 107.61482717791989",2021,-6.90648632941917,107.61482717791989
89,32,JAWA BARAT,3273,KOTA BANDUNG,OUTLET,FO WARUNG GAUL,JL. CIHAMPELAS NO. 151,"-6.894176718330846, 107.60374123767446",2021,-6.894176718330846,107.60374123767446
90,32,JAWA BARAT,3273,KOTA BANDUNG,OUTLET,SCH SULTAN AGUNG,JL. SULTAN AGUNG NO. 3,"-6.904378931282043, 107.61130894064749",2021,-6.904378931282043,107.61130894064749
91,32,JAWA BARAT,3273,KOTA BANDUNG,OUTLET,ADIDAS SURAPATI,JL. SURAPATI NO. 61,"-6.898692024208147, 107.62106783840336",2021,-6.898692024208147,107.62106783840336
92,32,JAWA BARAT,3273,KOTA BANDUNG,OUTLET,VESSEL STORE,JL. TRUNOJOYO NO. 23,"-6.902742031894454, 107.61336197792414",2021,-6.902742031894454,107.61336197792414
93,32,JAWA BARAT,3273,KOTA BANDUNG,OUTLET,GUDANG GARMENT JL. JAKARTA,JL. JAKARTA NO.8,"-6.91438572944012, 107.63520305005038",2021,-6.91438572944012,107.63520305005038
94,32,JAWA BARAT,3273,KOTA BANDUNG,OUTLET,GUDANG GARMENT,JL. A.H. NASUTION NO. 76,"-6.906605074726724, 107.68472102006304",2021,-6.906605074726724,107.68472102006304
95,32,JAWA BARAT,3273,KOTA BANDUNG,OUTLET,TC7 STORE,JL. TAMAN CEMP. NO.7,"-6.9130207868256335, 107.62744989306988",2021,-6.9130207868256335,107.62744989306988
96,32,JAWA BARAT,3273,KOTA BANDUNG,OUTLET,HAPPY GO LUCKY,JL. CILIWUNG NO. 14,"-6.90567882375141, 107.62593099015047",2021,-6.90567882375141,107.62593099015047
97,32,JAWA BARAT,3273,KOTA BANDUNG,OUTLET,GUDANG GARMENT TOHA,JL. MOH. TOHA NO. 106,"-6.971742343837079, 107.61960208551908",2021,-6.971742343837079,107.61960208551908
98,32,JAWA BARAT,3273,KOTA BANDUNG,OUTLET,KING KONG JEANS,JL. CIHAMPELAS NO. 166A,"-6.894632004165648, 107.60412478177876",2021,-6.894632004165648,107.60412478177876
99,32,JAWA BARAT,3273,KOTA BANDUNG,OUTLET,RABBANI,JL. DIPATIUKUR NO. 44,"-6.895818214015603, 107.61694394065174",2021,-6.895818214015603,107.61694394065174
100,32,JAWA BARAT,3273,KOTA BANDUNG,OUTLET,ALISHA FANCY SHOP,JL. SALENDRO UTARA NO. 27,"-6.936511873128551, 107.63428053515011",2021,-6.936511873128551,107.63428053515011
101,32,JAWA BARAT,3273,KOTA BANDUNG,OUTLET,CROCS,JL. L. LÂ  R. R. MARTADINATA NO. 32,"-6.903002687983072, 107.61621794145405",2021,-6.903002687983072,107.61621794145405
102,32,JAWA BARAT,3273,KOTA BANDUNG,OUTLET,NS FACTORY OUTLET,JL. DEWI SARTIKA NO. 65,"-6.924286488826419, 107.60615434667045",2021,-6.924286488826419,107.60615434667045
103,32,JAWA BARAT,3273,KOTA BANDUNG,OUTLET,STOP N SHOP FACTORY OUTLET,JL. INSINYUR H. JUANDA NO. 152,"-6.903005412818931, 107.61029022630491",2021,-6.903005412818931,107.61029022630491
104,32,JAWA BARAT,3273,KOTA BANDUNG,OUTLET,SHAFIRA BUAH BATU,JL. BUAH BATU NO. 165 B,"-6.939793058374583, 107.62586564773416",2021,-6.939793058374583,107.62586564773416
105,32,JAWA BARAT,3273,KOTA BANDUNG,OUTLET,MR BEAN FACTORY OUTLET,JL. L. L. R. E. MARTADINATA NO. 57,"-6.905261017213382, 107.6158859264125",2021,-6.905261017213382,107.6158859264125
106,32,JAWA BARAT,3273,KOTA BANDUNG,OUTLET,CISANGKUY FACTORY OUTLET,JL. CISANGKUY NO. 58,"-6.901020930119488, 107.62185007160437",2021,-6.901020930119488,107.62185007160437
107,32,JAWA BARAT,3273,KOTA BANDUNG,OUTLET,JETSET FACTORY OUTLET,JL. IR. H. JUANDA NO. 116,"-6.890029154120969, 107.61352418187494",2021,-6.890029154120969,107.61352418187494
108,32,JAWA BARAT,3273,KOTA BANDUNG,OUTLET,CALAMUS FACTORY OUTLET,JL. L. L. R. E. MARTADINATA NO. 81,"-6.904687710406517, 107.62275614866572",2021,-6.904687710406517,107.62275614866572
109,32,JAWA BARAT,3273,KOTA BANDUNG,OUTLET,TOKO DAPUR BUNDA - FACTORY OUTLET,JL. LODAYA NO. 55,"-6.928306331488237, 107.6211102060817",2021,-6.928306331488237,107.6211102060817
110,32,JAWA BARAT,3273,KOTA BANDUNG,OUTLET,SPORT STATION TRUNOJOYO,JL. TRUNOJOYO NO.7,"-6.905101379773093, 107.61331287974103",2021,-6.905101379773093,107.61331287974103
111,32,JAWA BARAT,3273,KOTA BANDUNG,OUTLET,JOKOWOW FACTORY OUTLET,JL. CIHAMPELAS NO. 174,"-6.8778825618941815, 107.59653232116887",2021,-6.8778825618941815,107.59653232116887
112,32,JAWA BARAT,3273,KOTA BANDUNG,OUTLET,GRANDE FASHION & GALLERY,JL. CIHAMPELAS NO.186,"-6.892269287722978, 107.60405740746455",2021,-6.892269287722978,107.60405740746455
113,32,JAWA BARAT,3273,KOTA BANDUNG,OUTLET,CHERRY FACTORY OUTLET,JL. GEGERKALOOHILIR NO. 18,"-6.869472895818815, 107.59261891349128",2021,-6.869472895818815,107.59261891349128
114,32,JAWA BARAT,3273,KOTA BANDUNG,OUTLET,MIKHAYLA KIDS FACTORY OUTLET BATUSANGKAR,JL. SOEKARNO HATTA NO. 2,"-6.934082496732506, 107.71877241786453",2021,-6.934082496732506,107.71877241786453
115,32,JAWA BARAT,3273,KOTA BANDUNG,OUTLET,BARUNI BATIK GALLERY,JL. BUAH BATU NO.87,"-6.933772489803377, 107.6206051128925",2021,-6.933772489803377,107.6206051128925
116,32,JAWA BARAT,3273,KOTA BANDUNG,OUTLET,CUCI GUDANG BARANG BRANDED,JL. TAMAN KOPO INDAH I,"-6.966701958020234, 107.57331939325357",2021,-6.966701958020234,107.57331939325357
117,32,JAWA BARAT,3273,KOTA BANDUNG,OUTLET,FOJBA FACTOR OUTLET,JL. TERUSAN KOPO,"-7.007884620293743, 107.55094654543055",2021,-7.007884620293743,107.55094654543055
118,32,JAWA BARAT,3273,KOTA BANDUNG,OUTLET,JULIEN BIG SIZE,JL. VETERAN NO. 17-B,"-6.917855446526907, 107.61489750674073",2021,-6.917855446526907,107.61489750674073
119,32,JAWA BARAT,3273,KOTA BANDUNG,OUTLET,THE SPORTS WAREHOUSE,JL. BRAGA NO. 91,"-6.916662612507113, 107.6091038656638",2021,-6.916662612507113,107.6091038656638
120,32,JAWA BARAT,3273,KOTA BANDUNG,OUTLET,BRAND REVOLUTION,JL. IR. H. JUANDA,"-6.891286723690143, 107.61358912879248",2021,-6.891286723690143,107.61358912879248
121,32,JAWA BARAT,3273,KOTA BANDUNG,OUTLET,BOOM STOCK,JL. CIHAMPELAS NO. 144,"-6.894536944826362, 107.60403503222562",2021,-6.894536944826362,107.60403503222562
122,32,JAWA BARAT,3273,KOTA BANDUNG,OUTLET,BANDUNG ORIGINAL MERCHANDISE,JL. CIHAMPLES NO. 210,"-6.889212373123292, 107.60439439658299",2021,-6.889212373123292,107.60439439658299
123,32,JAWA BARAT,3273,KOTA BANDUNG,OUTLET,PERSIB MERCHANDISE STORE,JL. SULANJANA NO. 17,"-6.8981591543338645, 107.61005918538048",2021,-6.8981591543338645,107.61005918538048
124,32,JAWA BARAT,3273,KOTA BANDUNG,OUTLET,ELMEIRA HIJAB,JL. PROGO NO. 3,"-6.90249620083983, 107.61705736316036",2021,-6.90249620083983,107.61705736316036
125,32,JAWA BARAT,3273,KOTA BANDUNG,OUTLET,TOKO TIGA,JL. JEND. AHMAD YANI,"-6.91954844923399, 107.62110800602044",2021,-6.91954844923399,107.62110800602044
126,32,JAWA BARAT,3273,KOTA BANDUNG,OUTLET,TWIG HOUSE,JL. SUKAJADI NO. 127,"-6.889809921568851, 107.59668819521805",2021,-6.889809921568851,107.59668819521805
127,32,JAWA BARAT,3273,KOTA BANDUNG,OUTLET,OUTLET@251 - S.OLIVER,JL. RAYA PAJAJARAN NO. 27,"-6.570326471881416, 106.80866969848154",2021,-6.570326471881416,106.80866969848154
128,32,JAWA BARAT,3273,KOTA BANDUNG,OUTLET,TOKO SEPATU BATA,JL. RAYA BOJONGSOANG NO. 67,"-6.980270511895414, 107.63344458073257",2021,-6.980270511895414,107.63344458073257
129,32,JAWA BARAT,3273,KOTA BANDUNG,OUTLET,TOKO TAS ELIZABETH OTISTA,JL. OTTO ISKANDAR DINATA NO. 520,"-6.930504903131708, 107.60327406536369",2021,-6.930504903131708,107.60327406536369
130,32,JAWA BARAT,3273,KOTA BANDUNG,OUTLET,UNIVERSAL FOOTWEAR,JL. CIKONENG NO. 46,"-6.983099913512733, 107.64128579399383",2021,-6.983099913512733,107.64128579399383
131,32,JAWA BARAT,3273,KOTA BANDUNG,OUTLET,SILIWANGI,JL. JEND. AHMAD YANI 203,"-6.918466165064204, 107.624137627217",2021,-6.918466165064204,107.624137627217
132,32,JAWA BARAT,3273,KOTA BANDUNG,OUTLET,NIRWANA FABRIC OUTLET,JL. HASANUDIN NO. 9,"-6.890690522974218, 107.61630191739343",2021,-6.890690522974218,107.61630191739343
133,32,JAWA BARAT,3273,KOTA BANDUNG,OUTLET,C59,JL. MERAK NO.2,"-6.8972646996027684, 107.62038944317689",2021,-6.8972646996027684,107.62038944317689
134,32,JAWA BARAT,3273,KOTA BANDUNG,OUTLET,THIRD DAY CO,JL. CIHAMPELAS NO. 140,"-6.894473926345713, 107.60398860542506",2021,-6.894473926345713,107.60398860542506
135,32,JAWA BARAT,3273,KOTA BANDUNG,OUTLET,K2 BUSANA,JL. DEWI SARTIKA NO. 69,"-6.923048631574014, 107.6055812320262",2021,-6.923048631574014,107.6055812320262
136,32,JAWA BARAT,3273,KOTA BANDUNG,OUTLET,WIDELY PROJECT,JL. L. L. R. E. MARTADINATA NO. 107,"-6.9042290214011315, 107.62179519715473",2021,-6.9042290214011315,107.62179519715473
137,32,JAWA BARAT,3273,KOTA BANDUNG,OUTLET,RUMAH BAJU FASHION OUTLET,JL. PURWAKARTA NO. 146,"-6.914314342256234, 107.65666443816652",2021,-6.914314342256234,107.65666443816652
138,32,JAWA BARAT,3273,KOTA BANDUNG,OUTLET,KENARI FABRIC OUTLET,JL. KENARI NO. 14,"-6.909063594617352, 107.61140760578861",2021,-6.909063594617352,107.61140760578861
139,32,JAWA BARAT,3273,KOTA BANDUNG,OUTLET,FACTORY OUTLET HILTON,JL. TERUSAN KOPO KM. 11 NO. 76,"-6.979701495649215, 107.56012411140924",2021,-6.979701495649215,107.56012411140924
140,32,JAWA BARAT,3273,KOTA BANDUNG,OUTLET,BARCELONA SPORT,JL. JEND AHMAD YANI NO. 69,"-6.920599434461862, 107.62008805470039",2021,-6.920599434461862,107.62008805470039
141,32,JAWA BARAT,3273,KOTA BANDUNG,OUTLET,GRUTTY SEPATU,JL. CIBADUYUT RAYA NO. 66,"-6.95074969533578, 107.59352499888867",2021,-6.95074969533578,107.59352499888867
142,32,JAWA BARAT,3273,KOTA BANDUNG,OUTLET,TOKO DIANA,JL. CIBADUYUT RAYA NO. 134,"-6.955282248460807, 107.59300588875082",2021,-6.955282248460807,107.59300588875082
143,32,JAWA BARAT,3273,KOTA BANDUNG,OUTLET,BATIK UNGGUL JAYA,JL. VETERAN NO. 42,"-6.918646982122094, 107.615397375414",2021,-6.918646982122094,107.615397375414
144,32,JAWA BARAT,3273,KOTA BANDUNG,OUTLET,TOKO SEIRA,JL. BARANANG SIANG NO. 75,"-6.917837496520026, 107.61865891144464",2021,-6.917837496520026,107.61865891144464
145,32,JAWA BARAT,3273,KOTA BANDUNG,OUTLET,SYMPHONIC/CRUNC/UNFOLDS/STORE,JL. DEWI SARTIKA NO.7A,"-6.922618112056233, 107.60628267718364",2021,-6.922618112056233,107.60628267718364
146,32,JAWA BARAT,3273,KOTA BANDUNG,OUTLET,PLANET FASHION,JL. DEWI SARTIKA NO. 15,"-6.923470159127791, 107.60642215157381",2021,-6.923470159127791,107.60642215157381
147,32,JAWA BARAT,3273,KOTA BANDUNG,OUTLET,MYV FASHION,JL. KOSAR NO. KAV 9,"-6.901139390689338, 107.69139878038219",2021,-6.901139390689338,107.69139878038219
148,32,JAWA BARAT,3273,KOTA BANDUNG,OUTLET,MARYJANE STORE,JL. SULTAN TIRTAYASA NO.15,"-6.901828702482074, 107.61406120499139",2021,-6.901828702482074,107.61406120499139
149,32,JAWA BARAT,3273,KOTA BANDUNG,OUTLET,DAUKY FASHION HIJAB PASTEUR,JL. SUKARAJA ISTANA PASTTEUR REGENCY CRA49,"-6.890443329897997, 107.57501695629665",2021,-6.890443329897997,107.57501695629665
150,32,JAWA BARAT,3273,KOTA BANDUNG,OUTLET,TRIVIUM CLOTH,JL. LENGKONG BESAR NO. 81B,"-6.924931041717792, 107.61253150162418",2021,-6.924931041717792,107.61253150162418
151,32,JAWA BARAT,3273,KOTA BANDUNG,OUTLET,OUVAL RESEARCH BUAH BATU,JL. BUAH BATU NO. 64,"-6.932529481273305, 107.6188677939952",2021,-6.932529481273305,107.6188677939952
152,32,JAWA BARAT,3273,KOTA BANDUNG,OUTLET,TOKO ISNA FAJAR,JL. OTTO ISKANDAR DINATA NO. 177,"-6.919815344306286, 107.6042845743056",2021,-6.919815344306286,107.6042845743056
153,32,JAWA BARAT,3273,KOTA BANDUNG,OUTLET,BAJUKU BANDUNG,JL. CIPAMUKOLAN NO. 58,"-6.941638480489701, 107.67690030227584",2021,-6.941638480489701,107.67690030227584
154,32,JAWA BARAT,3273,KOTA BANDUNG,OUTLET,TOKO PRABU,JL. JENDERAL AHMAD YANINO. 124,"-6.91983621620014, 107.62114001206453",2021,-6.91983621620014,107.62114001206453
155,32,JAWA BARAT,3273,KOTA BANDUNG,OUTLET,KAOS POLOS BANDUNG / CEMARA CLOTHING,JL. CEMARA NO. 63,"-6.8834396127792585, 107.59844359504659",2021,-6.8834396127792585,107.59844359504659
156,32,JAWA BARAT,3273,KOTA BANDUNG,OUTLET,GILDAN BANDUNG,JL. TM. CIBEUNYIN SEL,"-6.907920493493678, 107.6267507288954",2021,-6.907920493493678,107.6267507288954
157,32,JAWA BARAT,3273,KOTA BANDUNG,OUTLET,GUDANG JAM BANDUNG,JL. TERNATE NO. 29,"-6.907119693360329, 107.61384598962665",2021,-6.907119693360329,107.61384598962665
158,32,JAWA BARAT,3273,KOTA BANDUNG,OUTLET,HURTZINEMEDIA STORE,JL. GUDANG SELATAN NO. 22A,"-6.916684481646385, 107.62079758537884",2021,-6.916684481646385,107.62079758537884
159,32,JAWA BARAT,3273,KOTA BANDUNG,OUTLET,POSHBRAIN STUDIO,JL. GUDANG SELATAN NO. 22,"-6.916895354640224, 107.62093414218135",2021,-6.916895354640224,107.62093414218135
160,32,JAWA BARAT,3273,KOTA BANDUNG,OUTLET,PABRIK-JEANS.COM,JL. GUDANG UTARA NO. 4,"-6.915072796311031, 107.619781000513",2021,-6.915072796311031,107.619781000513
161,32,JAWA BARAT,3273,KOTA BANDUNG,OUTLET,ZOYA,JL. RUMAH SAKIT NO. 131,"-6.9276416083992665, 107.69463707980415",2021,-6.9276416083992665,107.69463707980415
162,32,JAWA BARAT,3273,KOTA BANDUNG,OUTLET,BEST CARE,JL. KEMUNING NO. 23,"-6.915068293165974, 107.62815559512087",2021,-6.915068293165974,107.62815559512087
163,32,JAWA BARAT,3273,KOTA BANDUNG,OUTLET,THE HALLWAY,KEBON PISANG SUMUR BANDUNG,"-6.919075875192521, 107.62245623565857",2021,-6.919075875192521,107.62245623565857
164,32,JAWA BARAT,3273,KOTA BANDUNG,OUTLET,TAMIM 27,JL. TAMIM NO. 27,"-6.918076753295115, 107.60366566492453",2021,-6.918076753295115,107.60366566492453
165,32,JAWA BARAT,3273,KOTA BANDUNG,OUTLET,TOKO GONZO,JL. SETRAINDAH BARAT NO. 2,"-6.881825610269285, 107.58796799025642",2021,-6.881825610269285,107.58796799025642
166,32,JAWA BARAT,3273,KOTA BANDUNG,OUTLET,CHIODA SPORTS MARKET,JL. KEJAKSAAN NO. 19,"-6.917948929441125, 107.6109187036164",2021,-6.917948929441125,107.6109187036164
167,32,JAWA BARAT,3273,KOTA BANDUNG,OUTLET,D'FASHION TEXTILE & TAILOR,JL. VETEREAN NO. 41,"-6.919013983643716, 107.61613291318217",2021,-6.919013983643716,107.61613291318217
168,32,JAWA BARAT,3273,KOTA BANDUNG,OUTLET,DBL STORE BANDUNG,JL. CIHAMPELAS NO. 248,"-6.888047672766455, 107.60406614849221",2021,-6.888047672766455,107.60406614849221
169,32,JAWA BARAT,3273,KOTA BANDUNG,OUTLET,MONALIZA,JL. L. L. R. E. MARTADINATA NO. 170,"-6.915064730290696, 107.62945156567447",2021,-6.915064730290696,107.62945156567447
170,32,JAWA BARAT,3273,KOTA BANDUNG,OUTLET,LAVIE BABY HOURSE,JL. IMAM BONJOL NO. 6,"-6.893926279276422, 107.61555055352467",2021,-6.893926279276422,107.61555055352467
171,32,JAWA BARAT,3273,KOTA BANDUNG,OUTLET,CAHAYA SPORT,JL. JENDERAL AHMAD YANI NO. 262,"-6.916215794187197, 107.62928961683568",2021,-6.916215794187197,107.62928961683568
172,32,JAWA BARAT,3273,KOTA BANDUNG,OUTLET,ELIZABETH CIATEUL,JL. IBU INGGIT GARNASIH NO. 15,"-6.93014594131587, 107.60259199537205",2021,-6.93014594131587,107.60259199537205
173,32,JAWA BARAT,3273,KOTA BANDUNG,OUTLET,VILOUR PROMO INDONESIA,JL. DIPATI UKUR NO. 76A,"-6.88905259768777, 107.61622077448756",2021,-6.88905259768777,107.61622077448756
174,32,JAWA BARAT,3273,KOTA BANDUNG,DISTRO,RABBANI KOPO,JL. RAYA KOPO NO. 632,"-6.958990728996702, 107.5799984107519",2021,-6.958990728996702,107.5799984107519
175,32,JAWA BARAT,3273,KOTA BANDUNG,DISTRO,SCREAMOUS SHOPHOUSE,JL. GEUSAN ULUN NO. 01,"-6.904158617952064, 107.61186666876148",2021,-6.904158617952064,107.61186666876148
176,32,JAWA BARAT,3273,KOTA BANDUNG,DISTRO,WORMHOLE STORE,JL. BAHUREKSA NO. 27,"-6.904489908112416, 107.61611509084689",2021,-6.904489908112416,107.61611509084689
177,32,JAWA BARAT,3273,KOTA BANDUNG,DISTRO,347 STORE,JL. TRUNOJOYO NO. 4,"-6.905664882299723, 107.61305015736721",2021,-6.905664882299723,107.61305015736721
178,32,JAWA BARAT,3273,KOTA BANDUNG,DISTRO,RANDOM APPAREL STORE,JL. WASTUKENCANA GG. NANGKASUNI NO. 1,"-6.905030747265724, 107.60714650971683",2021,-6.905030747265724,107.60714650971683
179,32,JAWA BARAT,3273,KOTA BANDUNG,DISTRO,HOUSE OF SMITH - BANDUNG SULTAN AGUNG,JL. SULTAN AGUNG NO. 27,"-6.90360685810929, 107.61284753691969",2021,-6.90360685810929,107.61284753691969
180,32,JAWA BARAT,3273,KOTA BANDUNG,DISTRO,INSURGENT CLUB'S FLAGSHIP STORE,JL. SULTAN AGUNG NO. 27,"-6.9037240196200536, 107.61290118130078",2021,-6.9037240196200536,107.61290118130078
181,32,JAWA BARAT,3273,KOTA BANDUNG,DISTRO,BLJK BLACKJACK STORE,JL. TRUNOJOYO NO. 28,"-6.903737333628094, 107.61331155903618",2021,-6.903737333628094,107.61331155903618
182,32,JAWA BARAT,3273,KOTA BANDUNG,DISTRO,GEOFF MAX FOOTWEAR,JL. TRUNOJOYO NO. 15,"-6.904605393186797, 107.61297360063118",2021,-6.904605393186797,107.61297360063118
183,32,JAWA BARAT,3273,KOTA BANDUNG,DISTRO,BLOODS CONCEPT STORE,JL. SULTAN AGUNG,"-6.90459474193543, 107.61189132941658",2021,-6.90459474193543,107.61189132941658
184,32,JAWA BARAT,3273,KOTA BANDUNG,DISTRO,COSMIC CLOTHES,JL. SULTAN AGUNG NO. 7,"-6.9047288782562655, 107.61164356037447",2021,-6.9047288782562655,107.61164356037447
185,32,JAWA BARAT,3273,KOTA BANDUNG,DISTRO,PAPERSMOOTH,JL. SULTAN AGUNG,"-6.904835388771824, 107.61134583507936",2021,-6.904835388771824,107.61134583507936
186,32,JAWA BARAT,3273,KOTA BANDUNG,DISTRO,BLACK ID CLOTHING,JL. SULTAN AGUNG NO. 3C,"-6.905054566527386, 107.61137114851095",2021,-6.905054566527386,107.61137114851095
187,32,JAWA BARAT,3273,KOTA BANDUNG,DISTRO,KICK DENIM,JL. SULTAN AGUNG NO.3C,"-6.904995986046634, 107.6113067752027",2021,-6.904995986046634,107.6113067752027
188,32,JAWA BARAT,3273,KOTA BANDUNG,DISTRO,EVIL ARMY,JL. SULTAN AGUNG NO. 5,"-6.904833557618647, 107.61151330528364",2021,-6.904833557618647,107.61151330528364
189,32,JAWA BARAT,3273,KOTA BANDUNG,DISTRO,POPCULINE,JL. TRUNOJOYO NO. 6,"-6.905984028336645, 107.61308223259785",2021,-6.905984028336645,107.61308223259785
190,32,JAWA BARAT,3273,KOTA BANDUNG,DISTRO,FLASHY,JL. DIPATI UKUR NO. 1,"-6.89793599676728, 107.61324526167103",2021,-6.89793599676728,107.61324526167103
191,32,JAWA BARAT,3273,KOTA BANDUNG,DISTRO,MISCHIEF DENIM STUDIO,JL. L. L. R. E. MARTADINATA NO.70,"-6.905820604448319, 107.62084693460542",2021,-6.905820604448319,107.62084693460542
192,32,JAWA BARAT,3273,KOTA BANDUNG,DISTRO,UNITED HART FLAGSHIP STORE,JL. SULTAN TIRTAYASA NO. 30,"-6.903371652184566, 107.6145399913233",2021,-6.903371652184566,107.6145399913233
193,32,JAWA BARAT,3273,KOTA BANDUNG,DISTRO,HRCN,JL. SULTAN AGUNG NO. 7,"-6.9045308308899225, 107.6116318276395",2021,-6.9045308308899225,107.6116318276395
194,32,JAWA BARAT,3273,KOTA BANDUNG,DISTRO,NORDHENBASIC,JL. BAHUREKSA NO. 20,"-6.9052337986489, 107.61511869524249",2021,-6.9052337986489,107.61511869524249
195,32,JAWA BARAT,3273,KOTA BANDUNG,DISTRO,VISVAL STORE,JL. BANDA NO. 25,"-6.904472253617088, 107.61636137414592",2021,-6.904472253617088,107.61636137414592
196,32,JAWA BARAT,3273,KOTA BANDUNG,DISTRO,MATERNAL DISASTER STORE,JL. WIRA ANGUN NO.4B,"-6.903375104517433, 107.6139903220784",2021,-6.903375104517433,107.6139903220784
197,32,JAWA BARAT,3273,KOTA BANDUNG,DISTRO,ROUGHNECK 1991 STORE BANDUNG,JL. BAHUREKSA NO. 5,"-6.905109984578482, 107.61411398024684",2021,-6.905109984578482,107.61411398024684
198,32,JAWA BARAT,3273,KOTA BANDUNG,DISTRO,RECLAYS OFFICIAL STORE,JL. TRUNOJOYO NO. 23,"-6.9027887244490405, 107.61342130429122",2021,-6.9027887244490405,107.61342130429122
199,32,JAWA BARAT,3273,KOTA BANDUNG,DISTRO,CHRONIC ROCK MERCH,JL. SAWAH KURUNG IV,"-6.933678469265703, 107.61141121599918",2021,-6.933678469265703,107.61141121599918
200,32,JAWA BARAT,3273,KOTA BANDUNG,DISTRO,VEARST STORE,JL. GUDANG SELATAN NO. 22B,"-6.916247110451997, 107.6208756769474",2021,-6.916247110451997,107.6208756769474
201,32,JAWA BARAT,3273,KOTA BANDUNG,DISTRO,NIION,JL. GUDANG SELATAN NO. 22,"-6.91694481048164, 107.62098092207977",2021,-6.91694481048164,107.62098092207977
202,32,JAWA BARAT,3273,KOTA BANDUNG,DISTRO,POT MEETS POP DENIM,JL. BAHUREKSA NO. 20,"-6.905330705376133, 107.61506403558182",2021,-6.905330705376133,107.61506403558182
203,32,JAWA BARAT,3273,KOTA BANDUNG,DISTRO,GREENLIGHT FAMO,JL. MARGONDA RAYA NO. 214,"-6.377594057081619, 106.83186381041519",2021,-6.377594057081619,106.83186381041519
204,32,JAWA BARAT,3273,KOTA BANDUNG,DISTRO,BLOODS MAINSTORE,JL. SULTAN AGUNG NO. 25,"-6.9035722962860655, 107.61271780537949",2021,-6.9035722962860655,107.61271780537949
205,32,JAWA BARAT,3273,KOTA BANDUNG,DISTRO,WADEZIG! OFFLINE STORE,JL. TRUNOJOYO NO. 4,"-6.906095510668606, 107.6128968343408",2021,-6.906095510668606,107.6128968343408
206,32,JAWA BARAT,3273,KOTA BANDUNG,DISTRO,PROSHOP ORIGINAL,JL. CIGURIANG NO. 9,"-6.923268914454585, 107.60470570857846",2021,-6.923268914454585,107.60470570857846
207,32,JAWA BARAT,3273,KOTA BANDUNG,DISTRO,BLACKID CARTEL,JL. SULTAN AGUNG NO. 3C,"-6.9049015953116255, 107.61129889033519",2021,-6.9049015953116255,107.61129889033519
208,32,JAWA BARAT,3273,KOTA BANDUNG,DISTRO,PETER SAYS DENIM,JL. CIUMBULEUIT NO. 109,"-6.878108933028832, 107.60345612166867",2021,-6.878108933028832,107.60345612166867
209,32,JAWA BARAT,3273,KOTA BANDUNG,DISTRO,GUMMO,JL. SULTAN AGUNG NO. 13,"-6.9040012516997455, 107.6122232067519",2021,-6.9040012516997455,107.6122232067519
210,32,JAWA BARAT,3273,KOTA BANDUNG,DISTRO,MAYOUTFIT,JL. GEGERKALONG HILIR NO. 9,"-6.870430157648429, 107.59252785326565",2021,-6.870430157648429,107.59252785326565
211,32,JAWA BARAT,3273,KOTA BANDUNG,DISTRO,MAYOUTFIT BUAH BATU,JL. BUAH ATU NO. 222C,"-6.941252463655147, 107.62687080510935",2021,-6.941252463655147,107.62687080510935
212,32,JAWA BARAT,3273,KOTA BANDUNG,DISTRO,SHOPATALEEN,JL. GEGERKALONG HILIR NO.9B,"-6.870291088284675, 107.59257979218016",2021,-6.870291088284675,107.59257979218016
213,32,JAWA BARAT,3273,KOTA BANDUNG,DISTRO,BERAK9420,JL. TERUSAN PERINTIS NO. 92,"-6.8821594964415755, 107.57323466406477",2021,-6.8821594964415755,107.57323466406477
214,32,JAWA BARAT,3273,KOTA BANDUNG,DISTRO,FLAVA,JL. CIHAMPELAS NO. 177,"-6.88828604747268, 107.60385247740379",2021,-6.88828604747268,107.60385247740379
215,32,JAWA BARAT,3273,KOTA BANDUNG,DISTRO,BRODO FOOTWEAR,JL. LOMBOK NO. 11,"-6.909969500430918, 107.61851969202607",2021,-6.909969500430918,107.61851969202607
216,32,JAWA BARAT,3273,KOTA BANDUNG,DISTRO,SAVE MY MONDAY,JL. GUDANG SELATAN NO. 22B,"-6.916817453757029, 107.62086636442069",2021,-6.916817453757029,107.62086636442069
217,32,JAWA BARAT,3273,KOTA BANDUNG,DISTRO,DEUS EX MACHINA,JL. GUDANG SELATAN NO. 22,"-6.915888690059044, 107.62097973105209",2021,-6.915888690059044,107.62097973105209
218,32,JAWA BARAT,3273,KOTA BANDUNG,DISTRO,MOMS TO BE,JL. SOKA NO. 12,"-6.915957919635587, 107.62678939490395",2021,-6.915957919635587,107.62678939490395
219,32,JAWA BARAT,3273,KOTA BANDUNG,DISTRO,CARVIENO,JL. SOKA NO. 22-24,"-6.91612700020933, 107.62756716515044",2021,-6.91612700020933,107.62756716515044
220,32,JAWA BARAT,3273,KOTA BANDUNG,DISTRO,SPEEDTUNER INDONESIA,JL. JENDEAL AHMAD YANI NO. 231,"-6.916579657498894, 107.6278514814448",2021,-6.916579657498894,107.6278514814448
221,32,JAWA BARAT,3273,KOTA BANDUNG,DISTRO,JAYAGIRI OUTDOORS VANGUARD,JL. TERUSAN BUAH BATU NO. 255,"-6.9615765294307845, 107.63893784925477",2021,-6.9615765294307845,107.63893784925477
222,32,JAWA BARAT,3273,KOTA BANDUNG,DISTRO,RUBYLICIOUS BANDUNG,JL. KEMUNING NO. 2,"-6.913961557516845, 107.62719113469987",2021,-6.913961557516845,107.62719113469987
223,32,JAWA BARAT,3273,KOTA BANDUNG,DISTRO,RUBYLICIOUS WAREHOUSE,JL. PROF DR. SUTAMI NO. 52A,"-6.877444243973704, 107.58862177705305",2021,-6.877444243973704,107.58862177705305
224,32,JAWA BARAT,3273,KOTA BANDUNG,DISTRO,SVGGEST BAGS & GOODS,JL. GUDANG SELATAN NO. 22B,"-6.916934609456402, 107.62083417721792",2021,-6.916934609456402,107.62083417721792
225,32,JAWA BARAT,3273,KOTA BANDUNG,DISTRO,POISON STOCKROOM,JL. GUDANG SELATAN NO. 22B,"-6.916274262157493, 107.62098437938545",2021,-6.916274262157493,107.62098437938545
226,32,JAWA BARAT,3273,KOTA BANDUNG,DISTRO,RUMAH BATIK KOMAR,JL. SUMBAWA NO. 22,"-6.913007760333564, 107.61715727750645",2021,-6.913007760333564,107.61715727750645
227,32,JAWA BARAT,3273,KOTA BANDUNG,DISTRO,BATIK DANAR HADI,JL. L. L. R. E. MARTADINATA NO. 60,"-6.90580320770528, 107.62012181871977",2021,-6.90580320770528,107.62012181871977
228,32,JAWA BARAT,3273,KOTA BANDUNG,DISTRO,MANONJAYA BATIK,JL. SUMATERA NO. 17,"-6.916420456228421, 107.6133677125576",2021,-6.916420456228421,107.6133677125576
229,32,JAWA BARAT,3273,KOTA BANDUNG,DISTRO,JAKCLOTH STORE BANDUNG,JL. TERUSAN JAKARTA NO.109B,"-6.911955201438932, 107.65359440218556",2021,-6.911955201438932,107.65359440218556
231,32,JAWA BARAT,3273,KOTA BANDUNG,DISTRO,CALLA THE LABEL,JL. BENGAWAN NO. 45,"-6.910566654765937, 107.6292651470367",2021,-6.910566654765937,107.6292651470367
232,32,JAWA BARAT,3273,KOTA BANDUNG,DISTRO,OUR BANDUNG STYLE,JL. DIPATI UKUR NO. 72,"-6.888652771569398, 107.61613718066886",2021,-6.888652771569398,107.61613718066886
233,32,JAWA BARAT,3273,KOTA BANDUNG,DISTRO,OCLO.OFFICIAL,JL. CARINGIN NO. 235,"-6.943014001252724, 107.57648889139816",2021,-6.943014001252724,107.57648889139816
234,32,JAWA BARAT,3273,KOTA BANDUNG,DISTRO,COSMIC CLOTHING,JL. TRUNOJOYO NO. 4,"-6.905901079743472, 107.61302678110648",2021,-6.905901079743472,107.61302678110648
235,32,JAWA BARAT,3273,KOTA BANDUNG,DISTRO,URBAN CLOTH,JL. L. L. R. E. MARTADINATA NO. 57,"-6.905789046799411, 107.61589728651559",2021,-6.905789046799411,107.61589728651559
236,32,JAWA BARAT,3273,KOTA BANDUNG,DISTRO,AREI OUTDOOR GEAR CIHAMPELAS,JL. CIHAMPELAS NO. 19,"-6.905021106384828, 107.60423867686636",2021,-6.905021106384828,107.60423867686636
237,32,JAWA BARAT,3273,KOTA BANDUNG,DISTRO,RASHAWL,JL. MANGGA NO. 36B,"-6.911224257382555, 107.62879511854455",2021,-6.911224257382555,107.62879511854455
238,32,JAWA BARAT,3273,KOTA BANDUNG,DISTRO,MAIMA INDONESIA,JL. RANGGAMALELA NO. 8,"-6.901180447686171, 107.6110571897577",2021,-6.901180447686171,107.6110571897577
239,32,JAWA BARAT,3273,KOTA BANDUNG,DISTRO,MAIMA INDONESIA TUBAGUS ISMAIL,JL. TUBAGUS ISMAIL VIII NO. 27,"-6.882992293826276, 107.620676961748",2021,-6.882992293826276,107.620676961748
240,32,JAWA BARAT,3273,KOTA BANDUNG,DISTRO,LTHRKRFT,JL. GUDANG SELATAN NO. 22,"-6.91696610934598, 107.62094873453316",2021,-6.91696610934598,107.62094873453316
241,32,JAWA BARAT,3273,KOTA BANDUNG,DISTRO,LOZY HIJAB,JL. AMBON NO. 15,"-6.906722489189735, 107.616692972427",2021,-6.906722489189735,107.616692972427
242,32,JAWA BARAT,3273,KOTA BANDUNG,DISTRO,HI JACK SANDALS,JL. DAHLIA NO. 1A,"-6.912795425390005, 107.62769225677131",2021,-6.912795425390005,107.62769225677131
243,32,JAWA BARAT,3273,KOTA BANDUNG,DISTRO,ARENA EXPERIENCE,JL. AMBON NO. 9,"-6.907256820449246, 107.6161821953252",2021,-6.907256820449246,107.6161821953252
244,32,JAWA BARAT,3273,KOTA BANDUNG,DISTRO,SKATERS CIHAMPELAS,JL. CIHAMPELAS NO. 155,"-6.893796532446485, 107.60408036277398",2021,-6.893796532446485,107.60408036277398
245,32,JAWA BARAT,3273,KOTA BANDUNG,DISTRO,CARDINAL,JL. CIHAMPELAS NO. 153,"-6.89395824053069, 107.60397378356157",2021,-6.89395824053069,107.60397378356157
246,32,JAWA BARAT,3273,KOTA BANDUNG,DISTRO,RUSS & CO.STORE,JL. SULTAN AGUNG NO. 27,"-6.903641474320705, 107.61294912547767",2021,-6.903641474320705,107.61294912547767
247,32,JAWA BARAT,3273,KOTA BANDUNG,DISTRO,PHILIP WORKS,JL. BAHUREKSA NO. 1,"-6.9051832111410825, 107.61378798633962",2021,-6.9051832111410825,107.61378798633962
248,32,JAWA BARAT,3273,KOTA BANDUNG,DISTRO,KZL KRIZLIBERATION,JL. MAULANA YUSUF NO. 2,"-6.901902427254507, 107.61363836441538",2021,-6.901902427254507,107.61363836441538
249,32,JAWA BARAT,3273,KOTA BANDUNG,DISTRO,NA KAMOE BY NA POCUT MOSLEM STORE,JL. SULTAN TIRTAYASA NO. 16,"-6.9029278535518905, 107.6129823177866",2021,-6.9029278535518905,107.6129823177866
250,32,JAWA BARAT,3273,KOTA BANDUNG,DISTRO,SILMA ID,JL. CIKUTRA NO. 181,"-6.892161182194223, 107.64293084823062",2021,-6.892161182194223,107.64293084823062
251,32,JAWA BARAT,3273,KOTA BANDUNG,DISTRO,APPAREL STORE,JL. SULTAN AGUNG NO. 5,"-6.904037707147792, 107.61135418938629",2021,-6.904037707147792,107.61135418938629
252,32,JAWA BARAT,3273,KOTA BANDUNG,DISTRO,BEGAN CLOTHING,JL. TRUNOJOYO NO. 25,"-6.902188122151149, 107.61371903678844",2021,-6.902188122151149,107.61371903678844
253,32,JAWA BARAT,3273,KOTA BANDUNG,DISTRO,NOSTRADE ID,JL. SURAPATI NO. 32,"-6.898188097785369, 107.62442315410189",2021,-6.898188097785369,107.62442315410189
254,32,JAWA BARAT,3273,KOTA BANDUNG,DISTRO,LINOLEUM SHOP,JL. SARIASIH BLOK 3 NO. 21,"-6.875871021633933, 107.57848726441884",2021,-6.875871021633933,107.57848726441884
255,32,JAWA BARAT,3273,KOTA BANDUNG,DISTRO,FEMME OUTFIT,JL. GAMBIR ANOM BUNTU BAWAH 1,"-6.8964173367922115, 107.62973607694911",2021,-6.8964173367922115,107.62973607694911
256,32,JAWA BARAT,3273,KOTA BANDUNG,DISTRO,RAWTYPE RIOT,JL. RERENG ADUMANIS NO. 3,"-6.895437429974698, 107.63153850807525",2021,-6.895437429974698,107.63153850807525
257,32,JAWA BARAT,3273,KOTA BANDUNG,DISTRO,CLO HIJAB BOUTIQUE,JL. RERENG ADUMANIS NO. 6B,"-6.894287097457747, 107.63110935329229",2021,-6.894287097457747,107.63110935329229
258,32,JAWA BARAT,3273,KOTA BANDUNG,DISTRO,THIRTEEN SPORTS APPAREL,JL. MANTERON NO. 45,"-6.89464924035078, 107.62983463825232",2021,-6.89464924035078,107.62983463825232
259,32,JAWA BARAT,3273,KOTA BANDUNG,DISTRO,JAMES BOOGIE,JL. GAMBIR SAKETI NO. 44,"-6.895073292455397, 107.62937329756559",2021,-6.895073292455397,107.62937329756559
260,32,JAWA BARAT,3273,KOTA BANDUNG,DISTRO,ESGOTADO,JL. SIDOMUKTI NO.T-5,"-6.89598663546193, 107.62883685589419",2021,-6.89598663546193,107.62883685589419
261,32,JAWA BARAT,3273,KOTA BANDUNG,DISTRO,FASSYSTOR HQ,JL. CIGADUNG RAYA TIMUR NO. 64,"-6.888446176727387, 107.63012599249306",2021,-6.888446176727387,107.63012599249306
262,32,JAWA BARAT,3273,KOTA BANDUNG,DISTRO,MINIMAX APPAREL,JL. BOJONG INDAH NO. 81,"-6.883087831331106, 107.63818368363705",2021,-6.883087831331106,107.63818368363705
263,32,JAWA BARAT,3273,KOTA BANDUNG,DISTRO,MAGGOT CLOTHING,JL. SAUYUNAN RAYA NO. 21,"-6.948449362696107, 107.58996296670563",2021,-6.948449362696107,107.58996296670563
264,32,JAWA BARAT,3273,KOTA BANDUNG,DISTRO,WELLDONE STORE,JL. CIBLUK NO. 4,"-6.963780759156126, 107.60339140542955",2021,-6.963780759156126,107.60339140542955
265,32,JAWA BARAT,3273,KOTA BANDUNG,DISTRO,MERCH CONS,JATISARI KEC BUAH BATU,"-6.931091663171401, 107.6625278191238",2021,-6.931091663171401,107.6625278191238
266,32,JAWA BARAT,3273,KOTA BANDUNG,DISTRO,CLOVER CLOTHING,JL. MELONG ASIH NO. 52,"-6.917763928394692, 107.56784240825942",2021,-6.917763928394692,107.56784240825942
267,32,JAWA BARAT,3273,KOTA BANDUNG,DISTRO,EPIDEMIC,JL. DEWI SARTIKA NO. 27,"-6.923494528439751, 107.60636226995514",2021,-6.923494528439751,107.60636226995514
268,32,JAWA BARAT,3273,KOTA BANDUNG,DISTRO,CITITEX KARAPITAN BANDUNG,JL. KARAPITAN NO. 137B,"-6.929826222421613, 107.61595790704027",2021,-6.929826222421613,107.61595790704027
269,32,JAWA BARAT,3273,KOTA BANDUNG,DISTRO,HAJJAS FASHION,JL. TAMAN PRAMUKA NO. 181,"-6.910320205409478, 107.62766202326583",2021,-6.910320205409478,107.62766202326583
270,32,JAWA BARAT,3273,KOTA BANDUNG,DISTRO,KIDDROCK CLOTHING CO.,JL. LENGKONG BESAR NO. 97,"-6.925875817649589, 107.61252784908585",2021,-6.925875817649589,107.61252784908585
271,32,JAWA BARAT,3273,KOTA BANDUNG,DISTRO,3SECOND STORE BUAH BATU,JL. BUAH BATU,"-6.944854920581903, 107.63031711633866",2021,-6.944854920581903,107.63031711633866
272,32,JAWA BARAT,3273,KOTA BANDUNG,DISTRO,DAUKY,JL. SUKARAJA BLOK CRA NO. 44,"-6.8901307387641575, 107.57302805714423",2021,-6.8901307387641575,107.57302805714423
273,32,JAWA BARAT,3273,KOTA BANDUNG,DISTRO,CENTRAL JACKET,JL. RAJAWALI TIMUR NO. 1,"-6.916206606255811, 107.58988790721857",2021,-6.916206606255811,107.58988790721857
274,32,JAWA BARAT,3273,KOTA BANDUNG,DISTRO,ORGOGLIO STORE,PERBATASAN JL PALEDANG - MALEBER NO. 166,"-6.902504785025195, 107.57100353765324",2021,-6.902504785025195,107.57100353765324
275,32,JAWA BARAT,3273,KOTA BANDUNG,DISTRO,RANGKAS,JL. SUNDA,"-6.925905284042102, 107.61677933827727",2021,-6.925905284042102,107.61677933827727
276,32,JAWA BARAT,3273,KOTA BANDUNG,DISTRO,MUSCA INDONESIA,KOMPLEK TULIP PERMAI BLOK 2 NO. 16,"-6.916323994439619, 107.63893539511587",2021,-6.916323994439619,107.63893539511587
277,32,JAWA BARAT,3273,KOTA BANDUNG,DISTRO,JAWARA BUIAO STORE,GG KEBONGPISANG,"-6.916633031760908, 107.61910128931544",2021,-6.916633031760908,107.61910128931544
278,32,JAWA BARAT,3273,KOTA BANDUNG,DISTRO,MI-YO,JL. SOKA NO. 01,"-6.9147239522357165, 107.62606752573737",2021,-6.9147239522357165,107.62606752573737
279,32,JAWA BARAT,3273,KOTA BANDUNG,DISTRO,BANDUNG APPARELS,JL.JEND. SUDIRMAN NO. 695,"-6.916552655801707, 107.57495972786948",2021,-6.916552655801707,107.57495972786948
280,32,JAWA BARAT,3273,KOTA BANDUNG,DISTRO,FLICKL CLOTHING,MARGAHAYU UTARA,"-6.950258819239871, 107.5788841248896",2021,-6.950258819239871,107.5788841248896
281,32,JAWA BARAT,3273,KOTA BANDUNG,DISTRO,SAGE BANDUNG,MERDEKA,"-6.916127645667325, 107.62061352151943",2021,-6.916127645667325,107.62061352151943
282,32,JAWA BARAT,3273,KOTA BANDUNG,DISTRO,MILOSMILES MINISTORE,JL. SULANJANA NO. 11,"-6.899733245898273, 107.61120756643179",2021,-6.899733245898273,107.61120756643179
283,32,JAWA BARAT,3273,KOTA BANDUNG,DISTRO,MAGMA APPAREL,JL. GAMELAN NO. 10,"-6.9349192653071965, 107.63036673236553",2021,-6.9349192653071965,107.63036673236553
284,32,JAWA BARAT,3273,KOTA BANDUNG,DISTRO,STORE OWNERS WORLDWIDE,JL. PUDAK NO. 11,"-6.913827248485041, 107.6285355237066",2021,-6.913827248485041,107.6285355237066
285,32,JAWA BARAT,3273,KOTA BANDUNG,DISTRO,TOKO SUNDA OKEY,JL. JEND. AHMAD YANI NO. 77,"-6.916997588778527, 107.6191727854579",2021,-6.916997588778527,107.6191727854579
286,32,JAWA BARAT,3273,KOTA BANDUNG,DISTRO,BROMEDISTRICT STORE,JL. GUDANG SELATAN NO. 22,"-6.917004230053431, 107.62089215395112",2021,-6.917004230053431,107.62089215395112
287,32,JAWA BARAT,3273,KOTA BANDUNG,DISTRO,3/4 7 N,JL. TRUNOJOYO NO. 4,"-6.906181225988295, 107.61291577604646",2021,-6.906181225988295,107.61291577604646
288,32,JAWA BARAT,3273,KOTA BANDUNG,DISTRO,FLO DISTRO,JL. TRUNOJOYO NO. 6,"-6.90597885658496, 107.61306597962671",2021,-6.90597885658496,107.61306597962671
289,32,JAWA BARAT,3273,KOTA BANDUNG,DISTRO,BEUTIK COMPANY,JL. JAWA NO.4,"-6.9152776911481055, 107.61683646846663",2021,-6.9152776911481055,107.61683646846663
290,32,JAWA BARAT,3273,KOTA BANDUNG,DISTRO,DSVN SHOP,BLOK O JL. TAMAN KOPO INDAH I NO. 27,"-6.965416438291629, 107.57035419678863",2021,-6.965416438291629,107.57035419678863
291,32,JAWA BARAT,3273,KOTA BANDUNG,DISTRO,LIFE CLOTHING,RUKO LINGGAHARA D-13 JL. SADANG,"-6.962732725481735, 107.5695387840497",2021,-6.962732725481735,107.5695387840497
292,32,JAWA BARAT,3273,KOTA BANDUNG,DISTRO,DNA CLOTHING STORE,JL. KUBANG UTARA 2 NO. 6D,"-6.885903756232404, 107.61740964759721",2021,-6.885903756232404,107.61740964759721
293,32,JAWA BARAT,3273,KOTA BANDUNG,DISTRO,SHUDAMI,JL. VIJAYAKUSUMA II NO. 19,"-6.915072796311031, 107.619781000513",2021,-6.915072796311031,107.619781000513
294,32,JAWA BARAT,3273,KOTA BANDUNG,DISTRO,INFLAME REBORN OFFLINE STORE,JL. LENGKONG BESAR NO. 81B,"-6.92538810311176, 107.61251772142114",2021,-6.92538810311176,107.61251772142114
295,32,JAWA BARAT,3273,KOTA BANDUNG,DISTRO,MYPRIDE FS&CO. HQ,JL. GUDANG SELATAN NO. 22,"-6.91665539867841, 107.62084666413863",2021,-6.91665539867841,107.62084666413863
296,32,JAWA BARAT,3273,KOTA BANDUNG,DISTRO,JON-GEN STORE,JL. JEND. AHMAD YANI NO. 247,"-6.914855277740896, 107.63043009311998",2021,-6.914855277740896,107.63043009311998
297,32,JAWA BARAT,3273,KOTA BANDUNG,DISTRO,P-CLOTHES STORE BANDUNG,JL. KAWALUYAAN INDAH I NO. 37,"-6.933386612862018, 107.6593540111671",2021,-6.933386612862018,107.6593540111671
298,32,JAWA BARAT,3273,KOTA BANDUNG,DISTRO,CLASSICONESIA,JL. GUDANG SELATAN NO. 22,"-6.91576833490871, 107.62097901040387",2021,-6.91576833490871,107.62097901040387
299,32,JAWA BARAT,3273,KOTA BANDUNG,DISTRO,BADHABIT HQ,JL. GUDANG SELATAN NO. 22,"-6.917095231405648, 107.6209633024036",2021,-6.917095231405648,107.6209633024036
300,32,JAWA BARAT,3273,KOTA BANDUNG,DISTRO,REVATI INDONESIA,JL. GUDANG SELATAN NO. 88,"-6.916167274209776, 107.61958692291358",2021,-6.916167274209776,107.61958692291358
301,32,JAWA BARAT,3273,KOTA BANDUNG,DISTRO,PORTEE GOODS,JL. GUDANG SELATAN NO. 22,"-6.916827758016169, 107.62059421698063",2021,-6.916827758016169,107.62059421698063
302,32,JAWA BARAT,3273,KOTA BANDUNG,DISTRO,PICK AND CHOOSE HQ,JL. GUDANG SELATAN NO. 22B,"-6.916947108642474, 107.62080908899598",2021,-6.916947108642474,107.62080908899598
303,32,JAWA BARAT,3273,KOTA BANDUNG,DISTRO,PANTJA BUANA KARYA ANAK NAGARI,JL. BABAKAN IRIGASELATAN NO. 19,"-6.928636705768225, 107.59144046340226",2021,-6.928636705768225,107.59144046340226
304,32,JAWA BARAT,3273,KOTA BANDUNG,DISTRO,ATTITUDE ORIGINAL OFFICE,JL. CIGURIANG NO. 17,"-6.923996506259132, 107.60465133280562",2021,-6.923996506259132,107.60465133280562
305,32,JAWA BARAT,3273,KOTA BANDUNG,DISTRO,ST KNITS,JL. SOKA NO. 24,"-6.915768461625117, 107.6276373746391",2021,-6.915768461625117,107.6276373746391
306,32,JAWA BARAT,3273,KOTA BANDUNG,DISTRO,GRIMLOC STORE,JL. KARTINI NO. 21,"-6.91775719841186, 107.61563940612429",2021,-6.91775719841186,107.61563940612429
307,32,JAWA BARAT,3273,KOTA BANDUNG,DISTRO,REDEL OUTFIT,JL. GEGERKALONG TONGGOH I NO. 20,"-6.864356810595863, 107.58015703797695",2021,-6.864356810595863,107.58015703797695
308,32,JAWA BARAT,3273,KOTA BANDUNG,DISTRO,RIDERS AND RULES,JL. BENGAWAN NO. 45,"-6.910495200259682, 107.62920356487072",2021,-6.910495200259682,107.62920356487072
309,32,JAWA BARAT,3273,KOTA BANDUNG,DISTRO,KAULA INDONESIA,JL. GUDANG SELATAN NO. 22,"-6.916630195316314, 107.62090590169946",2021,-6.916630195316314,107.62090590169946
310,32,JAWA BARAT,3273,KOTA BANDUNG,DISTRO,GALERI IVA,JL. DEDERUK NO. 6,"-6.898005974802493, 107.62085494793784",2021,-6.898005974802493,107.62085494793784
311,32,JAWA BARAT,3273,KOTA BANDUNG,DISTRO,TORCH SHOWROOM,JL. LASWI NO. 1M,"-6.916343592260752, 107.63072728304569",2021,-6.916343592260752,107.63072728304569
312,32,JAWA BARAT,3273,KOTA BANDUNG,DISTRO,AND-ALIVE APPAREL,KOMPLEKS BOUGENVILLE BLOK A 14 JL. PURWAKARTA,"-6.915409914036276, 107.65391235518887",2021,-6.915409914036276,107.65391235518887
313,32,JAWA BARAT,3273,KOTA BANDUNG,DISTRO,TRIPLE A TECHNICAL APPAREL,JL. KADIPATEN 4 NO. 7,"-6.9173271168021655, 107.65605806706807",2021,-6.9173271168021655,107.65605806706807
314,32,JAWA BARAT,3273,KOTA BANDUNG,DISTRO,HAMMERSTOUT FLAGSHIP STORE,JL. SARI INDAH RAYA NO. 19,"-6.921331810435873, 107.65399813791181",2021,-6.921331810435873,107.65399813791181
315,32,JAWA BARAT,3273,KOTA BANDUNG,DISTRO,PRIDE N JOY,JL. JENDERAL AHMAD YANI NO. 821,"-6.904411758101002, 107.65062598876843",2021,-6.904411758101002,107.65062598876843
316,32,JAWA BARAT,3273,KOTA BANDUNG,DISTRO,ALLVANE SPORTS APPAREL,JL. SULAKSANA BARU I NO. 7,"-6.904748136418572, 107.64983121298874",2021,-6.904748136418572,107.64983121298874
317,32,JAWA BARAT,3273,KOTA BANDUNG,DISTRO,HEFABI APPAREL STORE AND BLACKHAWK PANTS SHOP,JL. SUKAPURA NO. 12,"-6.9260205165714614, 107.65097179659553",2021,-6.9260205165714614,107.65097179659553
318,32,JAWA BARAT,3273,KOTA BANDUNG,DISTRO,JAVA JONES APPAREL,JL. IR. H. JUANDA NO. 364,"-6.873081367483839, 107.61746305530178",2021,-6.873081367483839,107.61746305530178
319,32,JAWA BARAT,3273,KOTA BANDUNG,DISTRO,WEHAVEFAN CYCLING APPAREL,JL. CIGADUNG SELATAN NO. 80B,"-6.880655969117218, 107.62584375646901",2021,-6.880655969117218,107.62584375646901
320,32,JAWA BARAT,3273,KOTA BANDUNG,DISTRO,KABOA APPAREL,JL. IMAM BONJOL NO. 48,"-6.888803224619253, 107.6150610484772",2021,-6.888803224619253,107.6150610484772
321,32,JAWA BARAT,3273,KOTA BANDUNG,DISTRO,FREE N STYLE,JL. DIPATIUKUR NO. 57,"-6.890514206050117, 107.61653993240158",2021,-6.890514206050117,107.61653993240158
322,32,JAWA BARAT,3273,KOTA BANDUNG,DISTRO,BLACKSHOES,JL. DIPATIUKUR NO. 66,"-6.890860375124786, 107.61721584950384",2021,-6.890860375124786,107.61721584950384
323,32,JAWA BARAT,3273,KOTA BANDUNG,DISTRO,WHITE SHER,JL. DIAPTIUKUR NO. 68D,"-6.890471601886559, 107.6169047126831",2021,-6.890471601886559,107.6169047126831
324,32,JAWA BARAT,3273,KOTA BANDUNG,DISTRO,F.A.U.S.T.,JL. DIPATIUKUR NO. 49B,"-6.891049104359702, 107.61698652084405",2021,-6.891049104359702,107.61698652084405
325,32,JAWA BARAT,3273,KOTA BANDUNG,DISTRO,YOUTHLAND,JL. DIPATIUKUR NO. 68,"-6.890417346776556, 107.61689155358928",2021,-6.890417346776556,107.61689155358928
326,32,JAWA BARAT,3273,KOTA BANDUNG,DISTRO,DUSKYSTORE,JL. DIAPTIUKUR NO. 72,"-6.889496002081354, 107.61632233959162",2021,-6.889496002081354,107.61632233959162
