batch_no,json_file,penginapan_id,name,property_type_final_after_p3,completion_priority_data_focus,latitude,longitude,current_price_lowest,current_overall_rating,current_reviews,q,max_pages,vacation_rentals,note
1,001_LODGE-00282_bumi-loka-residence.json,LODGE-00282,BUMI LOKA residence,hotel,P1_core_rating_price_missing,-6.8669,107.4576,,,,"BUMI LOKA residence, Jawa Barat, Indonesia",3,False,Targeted exact-name Google Hotels scrape; validate by name and coordinate before apply.
2,002_LODGE-00781_reddoorz-resort-at-hajeka-pangalengan-bandung.json,LODGE-00781,RedDoorz Resort at Hajeka Pangalengan Bandung,hotel,P1_core_rating_price_missing,-7.1974,107.5447,,,,"RedDoorz Resort at Hajeka Pangalengan Bandung, Jawa Barat, Indonesia",3,False,Targeted exact-name Google Hotels scrape; validate by name and coordinate before apply.
3,003_LODGE-01640_easton-park-residence-naffi-rooms-by-mustika.json,LODGE-01640,Easton Park Residence Naffi Rooms by Mustika,hotel,P1_core_rating_price_missing,-6.9361,107.7653,,,,"Easton Park Residence Naffi Rooms by Mustika, Jawa Barat, Indonesia",3,False,Targeted exact-name Google Hotels scrape; validate by name and coordinate before apply.
4,004_LODGE-00810_reddoorz-near-situ-cileunca-pangalengan.json,LODGE-00810,RedDoorz near Situ Cileunca Pangalengan,hotel,P1_core_rating_price_missing,-7.1872,107.5555,,,,"RedDoorz near Situ Cileunca Pangalengan, Jawa Barat, Indonesia",3,False,Targeted exact-name Google Hotels scrape; validate by name and coordinate before apply.
5,005_LODGE-00814_artana-2-chipsari-by-oyo.json,LODGE-00814,Artana 2 Chipsari by OYO,hotel,P1_core_rating_price_missing,-7.1933,107.545,,,,"Artana 2 Chipsari by OYO, Jawa Barat, Indonesia",3,False,Targeted exact-name Google Hotels scrape; validate by name and coordinate before apply.
6,006_LODGE-00815_reddoorz-adda-cabin-pengalengan.json,LODGE-00815,RedDoorz @ ADDA Cabin Pengalengan,hotel,P1_core_rating_price_missing,-7.2,107.5438,,,,"RedDoorz @ ADDA Cabin Pengalengan, Jawa Barat, Indonesia",3,False,Targeted exact-name Google Hotels scrape; validate by name and coordinate before apply.
7,007_LODGE-00491_baraya-homestay.json,LODGE-00491,Baraya Homestay,guest_house,P1_core_rating_price_missing,-7.1842,107.5617,,,,"Baraya Homestay, Jawa Barat, Indonesia",3,False,Targeted exact-name Google Hotels scrape; validate by name and coordinate before apply.
8,008_LODGE-00685_ciwidey-homestay-6-bedroom.json,LODGE-00685,Ciwidey Homestay 6 Bedroom,guest_house,P1_core_rating_price_missing,-7.1229,107.424,,,,"Ciwidey Homestay 6 Bedroom, Jawa Barat, Indonesia",3,False,Targeted exact-name Google Hotels scrape; validate by name and coordinate before apply.
9,009_LODGE-00492_homestay-bumina-eenk-bandung-pangalengan.json,LODGE-00492,Homestay Bumina EENK Bandung Pangalengan,guest_house,P1_core_rating_price_missing,-7.2329,107.5215,,,,"Homestay Bumina EENK Bandung Pangalengan, Jawa Barat, Indonesia",3,False,Targeted exact-name Google Hotels scrape; validate by name and coordinate before apply.
10,010_LODGE-00015_lavin-soka-homestay-tent.json,LODGE-00015,Lavin Soka Homestay - Tent,guest_house,P1_core_rating_price_missing,-6.7204,107.3809,,,,"Lavin Soka Homestay - Tent, Jawa Barat, Indonesia",3,False,Targeted exact-name Google Hotels scrape; validate by name and coordinate before apply.
11,011_LODGE-00704_mila-s-homestay.json,LODGE-00704,Mila's Homestay,guest_house,P1_core_rating_price_missing,-6.7979,107.1674,,,,"Mila's Homestay, Jawa Barat, Indonesia",3,False,Targeted exact-name Google Hotels scrape; validate by name and coordinate before apply.
12,012_LODGE-00493_pangalengan-homestay-by-lunam.json,LODGE-00493,Pangalengan Homestay By Lunam,guest_house,P1_core_rating_price_missing,-7.1793,107.5703,,,,"Pangalengan Homestay By Lunam, Jawa Barat, Indonesia",3,False,Targeted exact-name Google Hotels scrape; validate by name and coordinate before apply.
13,013_LODGE-00427_salsabilla-guest-house-syariah-by-oyo.json,LODGE-00427,Salsabilla Guest House Syariah by Oyo,guest_house,P1_core_rating_price_missing,-6.8871,107.5225,,,,"Salsabilla Guest House Syariah by Oyo, Jawa Barat, Indonesia",3,False,Targeted exact-name Google Hotels scrape; validate by name and coordinate before apply.
14,014_LODGE-00429_danapati-homestay.json,LODGE-00429,Danapati Homestay,guest_house,P1_core_rating_price_missing,-6.8558,107.4809,,,,"Danapati Homestay, Jawa Barat, Indonesia",3,False,Targeted exact-name Google Hotels scrape; validate by name and coordinate before apply.
15,015_LODGE-00430_oyo-90892-my-guest-house-syariah.json,LODGE-00430,OYO 90892 My Guest House Syariah,guest_house,P1_core_rating_price_missing,-6.9004,107.5225,,,,"OYO 90892 My Guest House Syariah, Jawa Barat, Indonesia",3,False,Targeted exact-name Google Hotels scrape; validate by name and coordinate before apply.
16,016_LODGE-01543_oyo-944-doorman-residence.json,LODGE-01543,OYO 944 Doorman Residence,hotel,P1_rating_reviews_missing,-6.918,107.5996,244106.0,,,"OYO 944 Doorman Residence, Jawa Barat, Indonesia",3,False,Targeted exact-name Google Hotels scrape; validate by name and coordinate before apply.
17,017_LODGE-00143_ads-house-padalarang-guesthouse-aesthetic.json,LODGE-00143,ADS House Padalarang - Guesthouse Aesthetic,guest_house,P1_rating_reviews_missing,-6.8495,107.4725,589091.0,,,"ADS House Padalarang - Guesthouse Aesthetic, Jawa Barat, Indonesia",3,False,Targeted exact-name Google Hotels scrape; validate by name and coordinate before apply.
18,018_LODGE-00568_homestay-vv-v.json,LODGE-00568,Homestay VV&V,guest_house,P1_rating_reviews_missing,-7.1353,107.4067,360000.0,,,"Homestay VV&V, Jawa Barat, Indonesia",3,False,Targeted exact-name Google Hotels scrape; validate by name and coordinate before apply.
19,019_LODGE-00569_homestay-murah-ciwidey.json,LODGE-00569,Homestay murah ciwidey,guest_house,P1_rating_reviews_missing,-7.1195,107.4319,1678502.0,,,"Homestay murah ciwidey, Jawa Barat, Indonesia",3,False,Targeted exact-name Google Hotels scrape; validate by name and coordinate before apply.
20,020_LODGE-00836_syariah-maribaya-family-guest-house.json,LODGE-00836,Syariah Maribaya Family Guest House,guest_house,P1_rating_reviews_missing,-6.8167,107.6273,271744.0,,,"Syariah Maribaya Family Guest House, Jawa Barat, Indonesia",3,False,Targeted exact-name Google Hotels scrape; validate by name and coordinate before apply.
21,021_LODGE-00591_tiara-guest-house.json,LODGE-00591,Tiara Guest House,guest_house,P1_rating_reviews_missing,-6.7975,107.1724,235090.0,,,"Tiara Guest House, Jawa Barat, Indonesia",3,False,Targeted exact-name Google Hotels scrape; validate by name and coordinate before apply.
22,022_LODGE-00010_wildan-guesthouse.json,LODGE-00010,Wildan Guesthouse,guest_house,P1_rating_reviews_missing,-6.8017,107.0619,1379101.0,,,"Wildan Guesthouse, Jawa Barat, Indonesia",3,False,Targeted exact-name Google Hotels scrape; validate by name and coordinate before apply.
23,023_LODGE-00631_alma-strawberry-home-stay.json,LODGE-00631,Alma Strawberry ( Home stay ),guest_house,P1_rating_reviews_missing,-7.1323,107.4169,732067.0,,,"Alma Strawberry ( Home stay ), Jawa Barat, Indonesia",3,False,Targeted exact-name Google Hotels scrape; validate by name and coordinate before apply.
24,024_LODGE-01575_kost-harian-penginapan-peri.json,LODGE-01575,Kost harian/penginapan peri,guest_house,P1_rating_reviews_missing,-6.9446,107.5953,142648.0,,,"Kost harian/penginapan peri, Jawa Barat, Indonesia",3,False,Targeted exact-name Google Hotels scrape; validate by name and coordinate before apply.
25,025_LODGE-00684_ciwidey-homestay-4-bedroom.json,LODGE-00684,Ciwidey Homestay 4 Bedroom,guest_house,P1_rating_reviews_missing,-7.1327,107.4215,2019017.0,,,"Ciwidey Homestay 4 Bedroom, Jawa Barat, Indonesia",3,False,Targeted exact-name Google Hotels scrape; validate by name and coordinate before apply.
26,026_LODGE-00730_vv-v-homestay.json,LODGE-00730,VV&V HomeStay,guest_house,P1_rating_reviews_missing,-7.131,107.4208,900000.0,,,"VV&V HomeStay, Jawa Barat, Indonesia",3,False,Targeted exact-name Google Hotels scrape; validate by name and coordinate before apply.
27,027_LODGE-01621_oyo-94030-ar-guest-house-syariah.json,LODGE-01621,OYO 94030 Ar Guest House Syariah,guest_house,P1_rating_reviews_missing,-7.0344,107.5457,165525.0,,,"OYO 94030 Ar Guest House Syariah, Jawa Barat, Indonesia",3,False,Targeted exact-name Google Hotels scrape; validate by name and coordinate before apply.
28,028_LODGE-00104_collection-o-818-micasa-residence.json,LODGE-00104,Collection O 818 Micasa Residence,hotel,P1_price_missing,-6.889249,107.5793864,,3.5,751.0,"Collection O 818 Micasa Residence, Jawa Barat, Indonesia",3,False,Targeted exact-name Google Hotels scrape; validate by name and coordinate before apply.
29,029_LODGE-01354_fox-harris-hotel-city-center.json,LODGE-01354,FOX HARRIS Hotel City Center,hotel,P1_price_missing,-6.9145,107.6129,,4.4,4323.0,"FOX HARRIS Hotel City Center, Jawa Barat, Indonesia",3,False,Targeted exact-name Google Hotels scrape; validate by name and coordinate before apply.
30,030_LODGE-01369_idea-s-hotel.json,LODGE-01369,Idea's Hotel,hotel,P1_price_missing,-6.9423,107.6417,,4.2,1886.0,"Idea's Hotel, Jawa Barat, Indonesia",3,False,Targeted exact-name Google Hotels scrape; validate by name and coordinate before apply.
31,031_LODGE-01390_poin-phila-hotel.json,LODGE-01390,Poin Phila Hotel,hotel,P1_price_missing,-6.9061,107.6047,,4.4,567.0,"Poin Phila Hotel, Jawa Barat, Indonesia",3,False,Targeted exact-name Google Hotels scrape; validate by name and coordinate before apply.
32,032_LODGE-01366_hotel-bandung-permai.json,LODGE-01366,Hotel Bandung Permai,hotel,P1_price_missing,-6.914,107.6339,,3.6,555.0,"Hotel Bandung Permai, Jawa Barat, Indonesia",3,False,Targeted exact-name Google Hotels scrape; validate by name and coordinate before apply.
33,033_LODGE-01368_hotel-setiabudhi-indah.json,LODGE-01368,Hotel Setiabudhi Indah,hotel,P1_price_missing,-6.8616,107.5957,,4.3,433.0,"Hotel Setiabudhi Indah, Jawa Barat, Indonesia",3,False,Targeted exact-name Google Hotels scrape; validate by name and coordinate before apply.
34,034_LODGE-01342_bandung-city-center.json,LODGE-01342,Bandung City Center,hotel,P1_price_missing,-6.9129,107.6048,,4.3,196.0,"Bandung City Center, Jawa Barat, Indonesia",3,False,Targeted exact-name Google Hotels scrape; validate by name and coordinate before apply.
35,035_LODGE-01388_penginapan-rio-anakku-syariah-banjaran-mitra-reddoorz.json,LODGE-01388,Penginapan Rio Anakku Syariah Banjaran Mitra RedDoorz,hotel,P1_price_missing,-7.0136,107.6085,,3.7,126.0,"Penginapan Rio Anakku Syariah Banjaran Mitra RedDoorz, Jawa Barat, Indonesia",3,False,Targeted exact-name Google Hotels scrape; validate by name and coordinate before apply.
36,036_LODGE-01392_reddoorz-plus-point-phila-cihampelas.json,LODGE-01392,RedDoorz Plus @ Point Phila Cihampelas,hotel,P1_price_missing,-6.9061,107.6047,,4.3,80.0,"RedDoorz Plus @ Point Phila Cihampelas, Jawa Barat, Indonesia",3,False,Targeted exact-name Google Hotels scrape; validate by name and coordinate before apply.
37,037_LODGE-01336_airy-cicendo-otten-6-bandung.json,LODGE-01336,Airy Cicendo Otten 6 Bandung,hotel,P1_price_missing,-6.9029,107.6008,,4.5,50.0,"Airy Cicendo Otten 6 Bandung, Jawa Barat, Indonesia",3,False,Targeted exact-name Google Hotels scrape; validate by name and coordinate before apply.
38,038_LODGE-01385_oyo-1444-patradissa-stasiun-bandung-hotel.json,LODGE-01385,OYO 1444 Patradissa Stasiun Bandung Hotel,hotel,P1_price_missing,-6.9113,107.6018,,3.1,48.0,"OYO 1444 Patradissa Stasiun Bandung Hotel, Jawa Barat, Indonesia",3,False,Targeted exact-name Google Hotels scrape; validate by name and coordinate before apply.
39,039_LODGE-00140_cimindi-residence.json,LODGE-00140,Cimindi Residence,hotel,P1_price_missing,-6.8982606,107.5614139,,3.8,387.0,"Cimindi Residence, Jawa Barat, Indonesia",3,False,Targeted exact-name Google Hotels scrape; validate by name and coordinate before apply.
40,040_LODGE-01445_gasblock-braga.json,LODGE-01445,GASBLOCK BRAGA,hotel,P1_price_missing,-6.9182,107.6096,,4.4,595.0,"GASBLOCK BRAGA, Jawa Barat, Indonesia",3,False,Targeted exact-name Google Hotels scrape; validate by name and coordinate before apply.
41,041_LODGE-01467_oyo-life-3143-blessing-bed-and-breakfast.json,LODGE-01467,OYO Life 3143 Blessing Bed And Breakfast,hotel,P1_price_missing,-6.8931,107.6046,,4.0,184.0,"OYO Life 3143 Blessing Bed And Breakfast, Jawa Barat, Indonesia",3,False,Targeted exact-name Google Hotels scrape; validate by name and coordinate before apply.
42,042_LODGE-01508_wisma-wanita.json,LODGE-01508,Wisma Wanita,hotel,P1_price_missing,-6.9072,107.6226,,4.1,155.0,"Wisma Wanita, Jawa Barat, Indonesia",3,False,Targeted exact-name Google Hotels scrape; validate by name and coordinate before apply.
43,043_LODGE-01507_wisma-gasibu.json,LODGE-01507,Wisma Gasibu,hotel,P1_price_missing,-6.8975,107.6209,,4.3,140.0,"Wisma Gasibu, Jawa Barat, Indonesia",3,False,Targeted exact-name Google Hotels scrape; validate by name and coordinate before apply.
44,044_LODGE-00577_reddoorz-syariah-near-tugu-pandanwangi-cianjur.json,LODGE-00577,RedDoorz Syariah near Tugu Pandanwangi Cianjur,hotel,P1_price_missing,-6.8288,107.1163,,3.55,128.0,"RedDoorz Syariah near Tugu Pandanwangi Cianjur, Jawa Barat, Indonesia",3,False,Targeted exact-name Google Hotels scrape; validate by name and coordinate before apply.
45,045_LODGE-01471_reddoorz-lombok.json,LODGE-01471,RedDoorz @ Lombok,hotel,P1_price_missing,-6.9098,107.6186,,3.8,94.0,"RedDoorz @ Lombok, Jawa Barat, Indonesia",3,False,Targeted exact-name Google Hotels scrape; validate by name and coordinate before apply.
46,046_LODGE-01465_mr-a-hotel.json,LODGE-01465,Mr A Hotel,hotel,P1_price_missing,-6.896,107.6159,,4.5,86.0,"Mr A Hotel, Jawa Barat, Indonesia",3,False,Targeted exact-name Google Hotels scrape; validate by name and coordinate before apply.
47,047_LODGE-01413_airy-eco-cicendo.json,LODGE-01413,Airy Eco Cicendo,hotel,P1_price_missing,-6.9051,107.5986,,3.3,85.0,"Airy Eco Cicendo, Jawa Barat, Indonesia",3,False,Targeted exact-name Google Hotels scrape; validate by name and coordinate before apply.
48,048_LODGE-01473_reddoorz-paskal-hyper-square.json,LODGE-01473,RedDoorz @ Paskal Hyper Square,hotel,P1_price_missing,-6.9145,107.5941,,3.8,64.0,"RedDoorz @ Paskal Hyper Square, Jawa Barat, Indonesia",3,False,Targeted exact-name Google Hotels scrape; validate by name and coordinate before apply.
49,049_LODGE-01472_reddoorz-natuna.json,LODGE-01472,RedDoorz @ Natuna,hotel,P1_price_missing,-6.9173,107.6174,,4.6,15.0,"RedDoorz @ Natuna, Jawa Barat, Indonesia",3,False,Targeted exact-name Google Hotels scrape; validate by name and coordinate before apply.
50,050_LODGE-00198_reddoorz-plus-near-politeknik-negeri-bandung.json,LODGE-00198,RedDoorz Plus near Politeknik Negeri Bandung,hotel,P1_price_missing,-6.8759316,107.5743878,,4.5,132.0,"RedDoorz Plus near Politeknik Negeri Bandung, Jawa Barat, Indonesia",3,False,Targeted exact-name Google Hotels scrape; validate by name and coordinate before apply.
51,051_LODGE-00197_oyo-2728-sinulingga-residence.json,LODGE-00197,OYO 2728 Sinulingga Residence,hotel,P1_price_missing,-6.8881399,107.5778059,,3.2,56.0,"OYO 2728 Sinulingga Residence, Jawa Barat, Indonesia",3,False,Targeted exact-name Google Hotels scrape; validate by name and coordinate before apply.
52,052_LODGE-00196_oyo-1577-onic-residence.json,LODGE-00196,OYO 1577 Onic Residence,hotel,P1_price_missing,-6.8837299,107.5772402,,4.2,9.0,"OYO 1577 Onic Residence, Jawa Barat, Indonesia",3,False,Targeted exact-name Google Hotels scrape; validate by name and coordinate before apply.
53,053_LODGE-01532_d-sovia-hotel-bandung.json,LODGE-01532,D'Sovia Hotel Bandung,hotel,P1_price_missing,-6.9172,107.598,,4.2,1229.0,"D'Sovia Hotel Bandung, Jawa Barat, Indonesia",3,False,Targeted exact-name Google Hotels scrape; validate by name and coordinate before apply.
54,054_LODGE-00200_geowisata-inn.json,LODGE-00200,Geowisata Inn,hotel,P1_price_missing,-6.9175,107.5786,,4.4,976.0,"Geowisata Inn, Jawa Barat, Indonesia",3,False,Targeted exact-name Google Hotels scrape; validate by name and coordinate before apply.
55,055_LODGE-01537_hotel-flores-gallery.json,LODGE-01537,Hotel Flores Gallery,hotel,P1_price_missing,-6.9081,107.618,,4.1,574.0,"Hotel Flores Gallery, Jawa Barat, Indonesia",3,False,Targeted exact-name Google Hotels scrape; validate by name and coordinate before apply.
56,056_LODGE-01541_kampioen-bed-and-breakfast.json,LODGE-01541,Kampioen Bed and Breakfast,hotel,P1_price_missing,-6.9043,107.6017,,4.3,525.0,"Kampioen Bed and Breakfast, Jawa Barat, Indonesia",3,False,Targeted exact-name Google Hotels scrape; validate by name and coordinate before apply.
57,057_LODGE-01519_ardellia-hotel.json,LODGE-01519,Ardellia Hotel,hotel,P1_price_missing,-6.925,107.6189,,4.2,466.0,"Ardellia Hotel, Jawa Barat, Indonesia",3,False,Targeted exact-name Google Hotels scrape; validate by name and coordinate before apply.
58,058_LODGE-01558_wisma-dharma-bakti.json,LODGE-01558,Wisma Dharma Bakti,hotel,P1_price_missing,-6.9153,107.6172,,4.4,428.0,"Wisma Dharma Bakti, Jawa Barat, Indonesia",3,False,Targeted exact-name Google Hotels scrape; validate by name and coordinate before apply.
59,059_LODGE-01534_emia-hotel.json,LODGE-01534,Emia Hotel,hotel,P1_price_missing,-6.9241,107.6249,,3.9,403.0,"Emia Hotel, Jawa Barat, Indonesia",3,False,Targeted exact-name Google Hotels scrape; validate by name and coordinate before apply.
60,060_LODGE-01521_bantal-guling-asia-afrika.json,LODGE-01521,Bantal Guling Asia Afrika,hotel,P1_price_missing,-6.926,107.6056,,3.9,307.0,"Bantal Guling Asia Afrika, Jawa Barat, Indonesia",3,False,Targeted exact-name Google Hotels scrape; validate by name and coordinate before apply.
61,061_LODGE-01520_arsallya-hotel.json,LODGE-01520,Arsallya Hotel,hotel,P1_price_missing,-6.9279,107.6212,,4.1,285.0,"Arsallya Hotel, Jawa Barat, Indonesia",3,False,Targeted exact-name Google Hotels scrape; validate by name and coordinate before apply.
62,062_LODGE-01515_airy-gasibu-aria-jipang-6-bandung.json,LODGE-01515,Airy Gasibu Aria Jipang 6 Bandung,hotel,P1_price_missing,-6.9001,107.6159,,4.4,163.0,"Airy Gasibu Aria Jipang 6 Bandung, Jawa Barat, Indonesia",3,False,Targeted exact-name Google Hotels scrape; validate by name and coordinate before apply.
63,063_LODGE-01542_naraya-house.json,LODGE-01542,Naraya house,hotel,P1_price_missing,-6.9315,107.6193,,4.1,160.0,"Naraya house, Jawa Barat, Indonesia",3,False,Targeted exact-name Google Hotels scrape; validate by name and coordinate before apply.
64,064_LODGE-01547_reddoorz-plus-near-bip.json,LODGE-01547,RedDoorz Plus Near BIP,hotel,P1_price_missing,-6.9077,107.613,,4.6,133.0,"RedDoorz Plus Near BIP, Jawa Barat, Indonesia",3,False,Targeted exact-name Google Hotels scrape; validate by name and coordinate before apply.
65,065_LODGE-01538_hotel-mitra-mutiara-inn.json,LODGE-01538,Hotel Mitra Mutiara Inn,hotel,P1_price_missing,-6.9354,107.6241,,4.1,125.0,"Hotel Mitra Mutiara Inn, Jawa Barat, Indonesia",3,False,Targeted exact-name Google Hotels scrape; validate by name and coordinate before apply.
66,066_LODGE-01551_rhapsodic-stay-bed-and-breakfast-bandung.json,LODGE-01551,Rhapsodic Stay Bed and Breakfast Bandung,hotel,P1_price_missing,-6.8966,107.6213,,4.3,65.0,"Rhapsodic Stay Bed and Breakfast Bandung, Jawa Barat, Indonesia",3,False,Targeted exact-name Google Hotels scrape; validate by name and coordinate before apply.
67,067_LODGE-01539_hotel-reddoorz-malabar-39.json,LODGE-01539,Hotel RedDoorz Malabar 39,hotel,P1_price_missing,-6.9241,107.6249,,4.4,63.0,"Hotel RedDoorz Malabar 39, Jawa Barat, Indonesia",3,False,Targeted exact-name Google Hotels scrape; validate by name and coordinate before apply.
68,068_LODGE-01517_airy-regol-lengkong-besar-145-bandung.json,LODGE-01517,Airy Regol Lengkong Besar 145 Bandung,hotel,P1_price_missing,-6.9312,107.6129,,3.5,41.0,"Airy Regol Lengkong Besar 145 Bandung, Jawa Barat, Indonesia",3,False,Targeted exact-name Google Hotels scrape; validate by name and coordinate before apply.
69,069_LODGE-01514_airy-braga-lembong-21-bandung.json,LODGE-01514,Airy Braga Lembong 21 Bandung,hotel,P1_price_missing,-6.9177,107.6125,,3.5,28.0,"Airy Braga Lembong 21 Bandung, Jawa Barat, Indonesia",3,False,Targeted exact-name Google Hotels scrape; validate by name and coordinate before apply.
70,070_LODGE-01516_airy-lengkong-buah-batu-152-bandung.json,LODGE-01516,Airy Lengkong Buah Batu 152 Bandung,hotel,P1_price_missing,-6.9378,107.6233,,3.6,8.0,"Airy Lengkong Buah Batu 152 Bandung, Jawa Barat, Indonesia",3,False,Targeted exact-name Google Hotels scrape; validate by name and coordinate before apply.
71,071_LODGE-00214_airy-eco-budi-cimahi.json,LODGE-00214,Airy Eco Budi Cimahi,hotel,P1_price_missing,-6.8905806,107.5587424,,4.0,200.0,"Airy Eco Budi Cimahi, Jawa Barat, Indonesia",3,False,Targeted exact-name Google Hotels scrape; validate by name and coordinate before apply.
72,072_LODGE-00215_pondok-ayuni.json,LODGE-00215,Pondok Ayuni,hotel,P1_price_missing,-6.8814267,107.5788069,,4.0,165.0,"Pondok Ayuni, Jawa Barat, Indonesia",3,False,Targeted exact-name Google Hotels scrape; validate by name and coordinate before apply.
73,073_LODGE-00216_oyo-2609-black-dots.json,LODGE-00216,OYO 2609 Black Dots,hotel,P1_price_missing,-6.8769886,107.566889,,4.3,21.0,"OYO 2609 Black Dots, Jawa Barat, Indonesia",3,False,Targeted exact-name Google Hotels scrape; validate by name and coordinate before apply.
74,074_LODGE-01574_karang-setra-hotel-cottages.json,LODGE-01574,Karang Setra Hotel & Cottages,hotel,P1_price_missing,-6.8833,107.5956,,4.3,2619.0,"Karang Setra Hotel & Cottages, Jawa Barat, Indonesia",3,False,Targeted exact-name Google Hotels scrape; validate by name and coordinate before apply.
75,075_LODGE-01586_the-bougenvile-hotel.json,LODGE-01586,The Bougenvile Hotel,hotel,P1_price_missing,-6.9295,107.6268,,4.2,512.0,"The Bougenvile Hotel, Jawa Barat, Indonesia",3,False,Targeted exact-name Google Hotels scrape; validate by name and coordinate before apply.
76,076_LODGE-01579_reddoorz-talaga-bodas.json,LODGE-01579,RedDoorz @ Talaga Bodas,hotel,P1_price_missing,-6.9282,107.6202,,4.2,221.0,"RedDoorz @ Talaga Bodas, Jawa Barat, Indonesia",3,False,Targeted exact-name Google Hotels scrape; validate by name and coordinate before apply.
77,077_LODGE-01564_airy-veteran-30-bandung.json,LODGE-01564,Airy Veteran 30 Bandung,hotel,P1_price_missing,-6.9192,107.615,,4.3,127.0,"Airy Veteran 30 Bandung, Jawa Barat, Indonesia",3,False,Targeted exact-name Google Hotels scrape; validate by name and coordinate before apply.
78,078_LODGE-01559_airy-asia-afrika-pangarang-24-bandung.json,LODGE-01559,Airy Asia Afrika Pangarang 24 Bandung,hotel,P1_price_missing,-6.9242,107.61,,4.4,59.0,"Airy Asia Afrika Pangarang 24 Bandung, Jawa Barat, Indonesia",3,False,Targeted exact-name Google Hotels scrape; validate by name and coordinate before apply.
79,079_LODGE-01561_airy-malabar-gatot-subroto-62-bandung.json,LODGE-01561,Airy Malabar Gatot Subroto 62 Bandung,hotel,P1_price_missing,-6.9241,107.6249,,3.7,25.0,"Airy Malabar Gatot Subroto 62 Bandung, Jawa Barat, Indonesia",3,False,Targeted exact-name Google Hotels scrape; validate by name and coordinate before apply.
80,080_LODGE-01560_airy-cicendo-pasirkaliki-53-bandung.json,LODGE-01560,Airy Cicendo Pasirkaliki 53 Bandung,hotel,P1_price_missing,-6.9111,107.5976,,4.1,17.0,"Airy Cicendo Pasirkaliki 53 Bandung, Jawa Barat, Indonesia",3,False,Targeted exact-name Google Hotels scrape; validate by name and coordinate before apply.
